Data Year,ID,Property Name,Address,ZIP Code,Community Area,Primary Property Type,Gross Floor Area - Buildings (sq ft),Year Built,# of Buildings,ENERGY STAR Score,Electricity Use (kBtu),Natural Gas Use (kBtu),District Steam Use (kBtu),District Chilled Water Use (kBtu),All Other Fuel Use (kBtu),Site EUI (kBtu/sq ft),Source EUI (kBtu/sq ft),Weather Normalized Site EUI (kBtu/sq ft),Weather Normalized Source EUI (kBtu/sq ft),Total GHG Emissions (Metric Tons CO2e),GHG Intensity (kg CO2e/sq ft),Latitude,Longitude,Location
2015,103601,120 South LaSalle Street Building,120 South LaSalle Street,60603,LOOP,Office,"760,892",1929,1,91,"21,065,221","17,437,439",,"11,482,548",,65.7,126.1,67,127.7,"5,764",7.6,41.880353589999999,-87.632805860000005,"(41.88035359, -87.63280586)"
2015,101492,Wright College,4300 North Narragansett,60634,DUNNING,College/University,"544,380",1993,4,,"18,983,573",,,,,34.9,109.5,33.9,106.5,"3,814",7,41.958130429999997,-87.789580119999997,"(41.95813043, -87.78958012)"
2015,240429,The Buckingham Condominium Association,360 E Randolph Street,60601,LOOP,Multifamily Housing,"506,142",1981,1,13,"28,012,752","5,533,832",,,,66.3,185.3,69,193.6,"5,922",11.7,41.884816999999998,-87.617958830000006,"(41.884817, -87.61795883)"
2015,251285,Misericordia Home,6300 N. Ridge Ave.,60660,WEST RIDGE,Multifamily Housing,"694,445",1950,31,23,"28,851,985","49,256,438",,,,112.5,204.9,113.5,206,"8,413",12.1,41.995638,-87.675792000000001,"(41.995638, -87.675792)"
2015,172393,LEARN Charter School Herro Family Campus,3021 W Carroll Ave,60612,EAST GARFIELD PARK,K-12 School,"105,300",1908,1,40,"6,215,879","1,491,291",,,,73.2,200.2,74.7,203.6,"1,328",12.6,41.887271320000004,-87.702484749999996,"(41.88727132, -87.70248475)"
2015,245071,Lake Shore Condominium Assn.,1440 N. Lake Shore Dr.,60610,NEAR NORTH SIDE,Multifamily Housing,"376,600",1961,1,,"7,060,370","25,486,200",,,,86.4,129.9,90.4,134.19999999999999,"2,772",7.4,41.908999770000001,-87.626639159999996,"(41.90899977, -87.62663916)"
2015,119323,#1976 Lincoln Park,2647 2679 N Halsted St,60614,LINCOLN PARK,Retail Store,"80,069",2003,1,29,"6,706,842","517,508",,,,90.2,269.8,91.7,273.10000000000002,"1,375",17.2,41.930997660000003,-87.648941089999994,"(41.93099766, -87.64894109)"
2015,128978,"Woodbridge Nursing Pavilion, Ltd",2242 N. Kedzie Blvd.,60647,LOGAN SQUARE,Senior Care Community,"56,000",1975,1,51,"2,351,939","7,406,284",,,,174.3,270.7,178.8,274.2,866,15.5,41.921972859999997,-87.707508110000006,"(41.92197286, -87.70750811)"
2015,228537,201 East Chestnut Condominium Association,201 E Chestnut Street,60611,NEAR NORTH SIDE,Multifamily Housing,"285,870",1967,1,60,"9,289,702","1,917,761",,,,39.200000000000003,109.1,40.700000000000003,112.9,"1,968",6.9,41.89810086,-87.621580780000002,"(41.89810086, -87.62158078)"
2015,103643,180 North LaSalle,180 North LaSalle Street,60601,LOOP,Office,"857,412",1972,1,80,"33,809,402","31,245,750",,"21,961,774",,101.5,187.7,102.8,189.2,"9,610",11.2,41.885387719999997,-87.632891169999994,"(41.88538772, -87.63289117)"
2015,251286,101 Grand,101 W. Grand Ave.,60654,NEAR NORTH SIDE,Office,"61,971",1872,1,35,"3,009,988","6,043,800",,,,146.1,254.9,148,259,926,14.9,41.891595000000002,-87.631231,"(41.891595, -87.631231)"
2015,251613,SoutHighOccu-CPS,7342 S HOYNE AVE,60636,WEST ENGLEWOOD,K-12 School,"54,740",1988,1,25,"2,173,491","1,515,941",,,,67.400000000000006,153.80000000000001,69.400000000000006,155.9,517,9.4,41.75969491,-87.676276759999993,"(41.75969491, -87.67627676)"
2015,129303,03441-Ashland & Wellington,2940 North Ashland,60657,LAKE VIEW,Supermarket/Grocery Store,"74,182",1982,1,62,"12,389,777","4,816,500",,,,231.9,592.6,234.7,593.20000000000005,"2,745",37,41.935539679999998,-87.668547390000001,"(41.93553968, -87.66854739)"
2015,162430,Providence St Mel School,119 S. Central Park Blvd,60624,EAST GARFIELD PARK,K-12 School,"187,689",1929,1,83,"2,987,454","7,657,008",,,,56.7,92.8,60.1,96.4,"1,007",5.4,41.878835379999998,-87.715547999999998,"(41.87883538, -87.715548)"
2015,172132,Hotel Indigo Chicago Downtown Gold Coast,1244 N. Dearborn Street,60610,NEAR NORTH SIDE,Hotel,"73,450",1926,1,29,"5,175,359","4,144,552",,,,126.9,280.5,126.9,280.5,"1,260",17.2,41.905234299999996,-87.630450289999999,"(41.9052343, -87.63045029)"
2015,251567,PershingWest-CPS,3200 S CALUMET AVE,60644,DOUGLAS,K-12 School,"128,716",1990,1,68,"2,212,541","5,738,677",,,,61.8,100.8,65.8,105.3,749,5.8,41.836491530000004,-87.618190830000003,"(41.83649153, -87.61819083)"
2015,251542,Boone Elemen-CPS,6710 N Washtenaw Ave,60645,WEST RIDGE,K-12 School,"92,344",1938,1,55,"1,810,299","6,923,393",,,,94.6,140.30000000000001,96.4,142.19999999999999,731,7.9,42.003734080000001,-87.697856709999996,"(42.00373408, -87.69785671)"
2015,101852,Sheraton Chicago Hotel & Towers,301 E. North Water Street,60611,NEAR NORTH SIDE,Hotel,"1,158,300",1990,1,35,"77,024,535","33,066,201",,,,95,238.8,95.8,241.3,"17,232",14.9,41.889166950000003,-87.619436719999996,"(41.88916695, -87.61943672)"
2015,113745,The Sexton Condominium Association,360 W. Illinois Street,60654,NEAR NORTH SIDE,Multifamily Housing,"391,514",1915,1,88,"7,985,097","9,836,803",,,,45.5,90.4,46.9,91.7,"2,127",5.4,41.890758050000002,-87.637530560000002,"(41.89075805, -87.63753056)"
2015,175872,Piper's Alley,230 W. North Avenue,60610,LINCOLN PARK,Performing Arts,"137,176",1977,1,,"5,869,902","1,099,712,681",,,,"8,059.6","8,552","8,059.1","8,550.4","59,590",434.4,41.911539380000001,-87.636169089999996,"(41.91153938, -87.63616909)"
2015,101735,71215A STATE STREET,101 and 111 North State Street E,60602,LOOP,Retail Store,"1,841,736",1879,1,87,"64,037,576","42,580,021",,,,57.9,133.5,59.1,134.30000000000001,"15,128",8.1999999999999993,41.88334304,-87.627854569999997,"(41.88334304, -87.62785457)"
2015,175508,8507-Jefferson Park (Elston),5353 N. Elston,60630,JEFFERSON PARK,Supermarket/Grocery Store,"63,165",2013,1,51,"10,671,637","9,743,700",,,,323.2,692.5,324.8,693,"2,662",42.1,41.97887489,-87.757584989999998,"(41.97887489, -87.75758499)"
2015,251743,SouthLoopBrn-CPS,1915 S FEDERAL ST,60616,NEAR SOUTH SIDE,K-12 School,"209,160",2005,1,100,"734,435",,,,,3.5,11,3.7,11.5,148,0.7,41.856190349999999,-87.629097630000004,"(41.85619035, -87.62909763)"
2015,238365,Vision On State Condominium Association,1255 S. State Street,60605,NEAR SOUTH SIDE,Multifamily Housing,"275,971",2007,1,19,"10,476,894","15,482,967",,,,94.1,178.1,96.4,181.5,"2,927",10.6,41.866150179999998,-87.626961460000004,"(41.86615018, -87.62696146)"
2015,251945,916 S Wabash,916 S Wabash,60605,LOOP,College/University,"66,799",1930,1,,"4,522,449","1,236,490",,,,86.2,232,87.9,235.1,974,14.6,41.870305999999999,-87.625910000000005,"(41.870306, -87.62591)"
2015,112638,Juvenile Temporary Detention Center Campus,1100 S. Hamilton Ave.,60612,NEAR WEST SIDE,Mixed Use Property,"1,023,851",1973,3,,"58,188,862","42,827,613",,,,98.7,222.4,101.3,224.1,"13,966",13.6,41.867488000000002,-87.680301,"(41.867488, -87.680301)"
2015,101724,Tribune Tower,435 N Michigan Ave,60611,NEAR NORTH SIDE,Office,"919,420",1925,1,77,"47,817,849","48,963,028",,,,105.3,219.2,108.1,221.5,"12,208",13.3,41.890291849999997,-87.624064140000002,"(41.89029185, -87.62406414)"
2015,251716,Pullman Elem-CPS,11311 S FORRESTVILLE AVE,60628,PULLMAN,K-12 School,"80,075",1909,1,36,"1,315,347","7,172,764",,,,106,145.6,113.9,154.6,645,8.1,41.688690440000002,-87.608831649999999,"(41.68869044, -87.60883165)"
2015,252092,Pullman Park,10808-10830 S. Doty Avenue W,60626,PULLMAN,Retail Store,"66,735",2013,2,,"2,743,625","336,648,267",,,,"5,085.7","5,425.9","5,085.7","5,425.9","18,432",276.2,41.692961320000002,-87.600581509999998,"(41.69296132, -87.60058151)"
2015,251358,Irving Park-CPS,3815 N Kedvale Ave,60641,IRVING PARK,K-12 School,"50,560",1906,1,17,"2,349,684","2,547,972",,,,96.9,198.8,97.8,199.9,607,12,41.950483329999997,-87.730130220000007,"(41.95048333, -87.73013022)"
2015,172670,6560 W Fullerton at Bricktown Square,6560 W Fullerton Ave,60707,BELMONT CRAGIN,Strip Mall,"116,579",1987,1,,"7,001,550","5,422,718",,,,106.6,237.4,107.2,238.1,"1,695",14.5,41.92368914,-87.788827679999997,"(41.92368914, -87.78882768)"
2015,251785,Saint Alphonsus Parish,1429 West Wellington Avenue,60657,LAKE VIEW,Mixed Use Property,"135,434",1918,3,,"1,594,855","8,735,520",,,,76.3,104.7,82,110.9,784,5.8,41.935804709999999,-87.665709829999997,"(41.93580471, -87.66570983)"
2015,251377,HurleyEdward-CPS,3849 W 69th Pl,60629,WEST LAWN,K-12 School,"55,250",1954,1,59,"1,809,210","2,224,067",,,,73,145.1,77.2,150.30000000000001,482,8.6999999999999993,41.766551569999997,-87.719282770000007,"(41.76655157, -87.71928277)"
2015,159002,U.S. Bank -- Pullman Branch,1000 E 111th Street,60628,PULLMAN,Bank Branch,"91,339",1972,1,43,"5,132,678","7,092,099",,,,133.80000000000001,258,136.9,260.2,"1,408",15.4,41.694428889999998,-87.599185199999994,"(41.69442889, -87.5991852)"
2015,251899,Shields Main-CPS,4250 S ROCKWELL ST,60632,BRIGHTON PARK,K-12 School,"128,230",1902,1,70,"3,670,073","5,174,057",,,,69,132.19999999999999,72.599999999999994,136.1,"1,012",7.9,41.816162589999998,-87.690173509999994,"(41.81616259, -87.69017351)"
2015,251871,South Shore-CPS,1955 E 75TH ST,60649,SOUTH SHORE,K-12 School,"213,710",2010,1,72,"7,891,035",,,,,36.9,115.9,36.700000000000003,115.2,"1,585",7.4,41.758830000000003,-87.577162000000001,"(41.75883, -87.577162)"
2015,241892,CityView Condominium Association,440 North McClurg Court,60611,NEAR NORTH SIDE,Multifamily Housing,"506,955",1991,1,60,"10,661,712","29,633,792",,,,79.5,127.4,82.8,130,"3,716",7.3,41.890287540000003,-87.618158309999998,"(41.89028754, -87.61815831)"
2015,251360,Armour Eleme-CPS,950 W 33rd Place,60608,BRIDGEPORT,K-12 School,"112,995",2014,1,55,"1,917,681","3,234,373",,,,45.6,83.3,48.1,86.7,557,4.9000000000000004,41.834087240000002,-87.650063750000001,"(41.83408724, -87.65006375)"
2015,251322,990 West Fullerton Building,990 West Fullerton Ave,60614,LINCOLN PARK,College/University,"91,963",1980,1,,"3,843,304","2,685,832",,,,71,161.9,73.400000000000006,164.4,915,9.9,41.925418000000001,-87.653232000000003,"(41.925418, -87.653232)"
2015,160278,"Fourth Prairie Shores, LLC",2851 S King Drive,60616,DOUGLAS,Multifamily Housing,"289,267",1960,1,38,"4,779,011","27,819,516",,,,112.7,152.9,118.1,158.6,"2,438",8.4,41.842687599999998,-87.616263720000006,"(41.8426876, -87.61626372)"
2015,159494,Presence Resurrection Retirement Community,7262 West Peterson Avenue,60631,NORWOOD PARK,Multifamily Housing,"404,455",1978,4,10,"16,442,701","28,194,299",,,,110.4,200.8,111.9,202.5,"4,801",11.9,41.990913280000001,-87.810672760000003,"(41.99091328, -87.81067276)"
2015,251277,Scientific Games-2718 Roscoe,2718 Roscoe St,60618,AVONDALE,Office,"121,666",2012,1,47,"9,539,662","1,256,078",,,,88.7,257,,,"1,983",16.3,41.942829000000003,-87.696214999999995,"(41.942829, -87.696215)"
2015,239739,1212 Lake Shore Drive Condominium,1212 N Lake Shore Drive,60610,NEAR NORTH SIDE,Multifamily Housing,"381,912",1969,1,23,"19,050,708","3,878,432",,,,60,167.3,62.7,173.8,"4,034",10.6,41.904561870000002,-87.625502690000005,"(41.90456187, -87.62550269)"
2015,251442,Hinton Eleme-CPS,646 W 71st St,60621,ENGLEWOOD,K-12 School,"71,892",1965,1,83,"1,249,805","3,122,029",,,,60.8,100.2,64.5,104.3,417,5.8,41.765584629999999,-87.641371849999999,"(41.76558463, -87.64137185)"
2015,156373,225 W. Ohio,225 W. Ohio,60654,NEAR NORTH SIDE,Office,"60,892",1907,1,90,"1,939,381","1,217,218",,,,51.8,121,53.2,121.8,454,7.5,41.892343160000003,-87.635340549999995,"(41.89234316, -87.63534055)"
2015,242605,850 Dewitt Place Condominiums,850 N Dewitt Place,60611,NEAR NORTH SIDE,Multifamily Housing,"263,000",1957,1,75,"3,552,844","17,126,205",,,,78.599999999999994,110.8,82.4,114.8,"1,624",6.2,41.898256920000001,-87.620732419999996,"(41.89825692, -87.62073242)"
2015,250147,820 W. Jackson LLC,820 W. Jackson,60607,NEAR WEST SIDE,Office,"175,086",1915,1,40,"15,352,219",,,,,87.7,275.3,87.7,275.3,"3,085",17.600000000000001,41.878269500000002,-87.648083959999994,"(41.8782695, -87.64808396)"
2015,243345,Shoreline Towers CA,6301 N Sheridan Road,60660,EDGEWATER,Multifamily Housing,"482,834",1970,1,46,"9,278,405","34,689,882",,,,91.1,135.80000000000001,92.4,137.19999999999999,"3,707",7.7,41.996686920000002,-87.654748889999993,"(41.99668692, -87.65474889)"
2015,157767,Roosevelt Hi-CPS,3436 W WILSON AVE,60625,ALBANY PARK,K-12 School,"319,900",1927,1,83,"6,469,879","14,441,440",,,,65.400000000000006,110.9,66.3,112.1,"2,067",6.5,41.965013249999998,-87.714512679999999,"(41.96501325, -87.71451268)"
2015,103766,640 N LaSalle,640 N LaSalle Dr,60654,NEAR NORTH SIDE,Office,"282,343",1969,1,68,"21,248,769","3,319,520",,,,87,248.7,88.1,250.9,"4,446",15.7,41.893614890000002,-87.633421510000005,"(41.89361489, -87.63342151)"
2015,251610,Goudy Elemen-CPS,5120 N Winthrop Ave,60640,UPTOWN,K-12 School,"98,019",1938,1,96,"751,767","5,314,707",,,,61.9,81,66.400000000000006,85.8,433,4.4000000000000004,41.97579494,-87.658068630000002,"(41.97579494, -87.65806863)"
2015,126411,Jenel Management Corp,25 E. Oak St.,60611,NEAR NORTH SIDE,Retail Store,"51,000",1992,1,,"3,234,750",,,,,63.4,199.2,64,200.9,650,12.7,41.900708850000001,-87.627290579999993,"(41.90070885, -87.62729058)"
2015,175365,College of Education Building,2247 N. Halstead Ave.,60614,LINCOLN PARK,College/University,"51,170",2000,1,,"4,041,589","1,440",,,,79,248,80.3,252,812,15.9,41.922663290000003,-87.648639000000003,"(41.92266329, -87.648639)"
2015,251720,Lafayette El-CPS,2714 W Augusta Blvd,60622,WEST TOWN,K-12 School,"197,400",1893,1,79,"2,945,592","9,444,270",,,,62.8,97.1,65.900000000000006,100.4,"1,093",5.5,41.89953285,-87.695018869999998,"(41.89953285, -87.69501887)"
2015,251622,Galileo Scho-CPS,820 S Carpenter St,60607,NEAR WEST SIDE,K-12 School,"102,703",1894,1,57,"2,002,074","5,828,393",,,,76.2,120.8,81.099999999999994,126.5,712,6.9,41.870844499999997,-87.653743210000002,"(41.8708445, -87.65374321)"
2015,135060,American Library Association,40-50 E. Huron,60611,NEAR NORTH SIDE,Office,"104,122",1960,2,,"6,094,282","34,812",,,,58.9,184.1,60.4,189,"1,226",11.8,41.894924000000003,-87.626552000000004,"(41.894924, -87.626552)"
2015,252112,Pete's Cermak,2526 W. Cermak,60608,SOUTH LAWNDALE,Supermarket/Grocery Store,"74,000",2006,1,50,"11,684,524","9,375,001",,,,284.60000000000002,628.79999999999995,287.39999999999998,628.9,"2,846",38.5,41.853288800000001,-87.689288849999997,"(41.8532888, -87.68928885)"
2015,241820,Park Millennium Condominium Association.,222 N. Columbus Drive,60601,LOOP,Multifamily Housing,"707,111",2002,1,18,"24,305,570","35,681,306",,,,84.8,160.9,88,164.3,"6,779",9.6,41.886581110000002,-87.621525610000006,"(41.88658111, -87.62152561)"
2015,102309,Schurz High-CPS,3601 N MILWAUKEE AVE,60641,IRVING PARK,K-12 School,"455,800",1910,1,81,"12,184,914","26,487,595",,,,84.8,145,86.7,146.9,"3,855",8.5,41.947507549999997,-87.735506000000001,"(41.94750755, -87.735506)"
2015,252066,The Park Monroe Condominium Homes Association,65 E. Monroe St.,60603,LOOP,Multifamily Housing,"480,820",2009,1,12,"23,020,757","4,418,950",,,,57.1,160,58.9,164.9,"4,860",10.1,41.880771000000003,-87.625597999999997,"(41.880771, -87.625598)"
2015,125763,4235,7050 S Pulaski,60629,WEST LAWN,Retail Store,"96,268",1977,1,61,"4,967,715","2,602,700",,,,78.599999999999994,190.4,80.3,191,"1,136",11.8,41.763487150000003,-87.723903530000001,"(41.76348715, -87.72390353)"
2015,250009,Malcolm X College,1900 West Van Buren Street,60612,NEAR WEST SIDE,College/University,"541,575",1971,1,,"25,403,152","29,511,031",,,,101.4,204.5,105.5,208.1,"6,671",12.3,41.876251000000003,-87.674126999999999,"(41.876251, -87.674127)"
2015,250134,231 South LaSalle,231 S. LaSalle Street,60604,LOOP,Office,"1,129,407",1924,1,88,"42,214,492","28,725,178",,"23,637,122",,83.7,165,84.7,166.1,,,41.878681360000002,-87.63229063,"(41.87868136, -87.63229063)"
2015,251474,Audubon Elem-CPS,3500 N Hoyne Ave,60618,NORTH CENTER,K-12 School,"72,489",1893,1,90,"1,197,083","3,913,537",,,,70.5,108.5,74.8,113.1,448,6.2,41.945413940000002,-87.681454009999996,"(41.94541394, -87.68145401)"
2015,250126,DCAM,5758 S. Maryland Ave.,60637,HYDE PARK,Ambulatory Surgical Center,"538,062",1996,1,,"56,808,367",,"51,389,758",,,201.1,446.4,201.1,446.4,"14,826",27.6,41.790217560000002,-87.605507979999999,"(41.79021756, -87.60550798)"
2015,175992,Halsted Pershing,815 W. Pershing Rd.,60609,NEW CITY,Other,"104,008",2009,1,,"2,137,908","3,529,977",,,,54.5,100.2,57.3,103.1,617,5.9,41.822996869999997,-87.647413650000004,"(41.82299687, -87.64741365)"
2015,221086,1500 Lakeshore Drive Building Corp.,1500 Lakeshore Drive,60610,NEAR NORTH SIDE,Multifamily Housing,"287,158",1928,1,53,"6,259,246","18,606,221",,,,86.6,136.5,91.3,141.30000000000001,"2,246",7.8,41.909810669999999,-87.626746150000002,"(41.90981067, -87.62674615)"
2015,251950,McLean,5824 S. Ellis Ave.,60637,HYDE PARK,Laboratory,"110,070",1953,1,,"8,465,657",,"20,238,300",,,260.8,462.7,264.7,467.4,"3,045",27.7,41.789752,-87.601271999999994,"(41.789752, -87.601272)"
2015,240752,200 N. Dearborn CA,200 N. Dearborn Street,60601,LOOP,Multifamily Housing,"359,953",1989,1,10,"11,978,389","26,112,829",,,,105.8,180.7,109.9,184.4,"3,794",10.5,41.886039879999998,-87.62982289,"(41.88603988, -87.62982289)"
2015,251649,RyderWilliam-CPS,8716 S WALLACE ST,60620,AUBURN GRESHAM,K-12 School,"73,326",1963,1,54,"1,493,316","4,550,457",,,,82.4,129.1,87.4,134.6,542,7.4,41.735261059999999,-87.639514700000007,"(41.73526106, -87.6395147)"
2015,162209,St. Edmund's Episcopal Church,6105 S. Michigan Ave,60637,WASHINGTON PARK,K-12 School,"60,000",1937,1,,"618,164","2,506,397",,,,52.1,76.2,55.3,79.5,257,4.3,41.783502179999999,-87.621639470000005,"(41.78350218, -87.62163947)"
2015,250067,Goldblatts Building,1609 W. Chicago,60622,WEST TOWN,Office,"160,280",1940,1,71,"9,218,569","2,381,819",,,,72.400000000000006,196.2,73.099999999999994,196.2,"1,979",12.3,41.896043689999999,-87.667789799999994,"(41.89604369, -87.6677898)"
2015,103598,222 North LaSalle,222 North LaSalle Street,60601,LOOP,Office,"1,177,218",1986,1,93,"51,123,429",,,,"31,464",43.5,136.4,43.5,136.4,"10,274",8.6999999999999993,41.886515180000004,-87.633244599999998,"(41.88651518, -87.6332446)"
2015,251420,CarsonRachel-CPS,5516 S Maplewood Ave,60629,GAGE PARK,K-12 School,"138,015",1917,1,44,"3,849,872","7,224,675",,,,80.2,142.6,84.3,146.5,"1,157",8.4,41.793297559999999,-87.688376840000004,"(41.79329756, -87.68837684)"
2015,251441,ChavezCesar-CPS,4747 S Marshfield Ave,60609,NEW CITY,K-12 School,"74,108",1993,1,2,"3,439,842","1,923,354",,,,72.400000000000006,173,73.7,172.8,793,10.7,41.807412669999998,-87.665716430000003,"(41.80741267, -87.66571643)"
2015,235845,The Elm at Clark,1122 N Clark St,60610,NEAR NORTH SIDE,Multifamily Housing,"356,786",1989,1,22,"13,276,566","19,115,846",,,,90.8,173.1,94.3,176.8,"3,683",10.3,41.902377749999999,-87.631844839999999,"(41.90237775, -87.63184484)"
2015,251565,DixonArthur-CPS,8306 S St Lawrence Ave,60619,CHATHAM,K-12 School,"101,627",1928,1,97,"1,041,732","3,981,727",,,,49.4,73.3,51.7,75.7,421,4.0999999999999996,41.743321639999998,-87.610619760000006,"(41.74332164, -87.61061976)"
2015,124236,830 North Michigan,830 N Michigan,60611,NEAR NORTH SIDE,Enclosed Mall,"126,000",1966,1,,"12,142,987",,,,,96.4,302.60000000000002,96.4,302.60000000000002,"2,440",19.399999999999999,41.897838919999998,-87.624650180000003,"(41.89783892, -87.62465018)"
2015,251226,325 West Huron Street,325 West Huron Street,60654,NEAR NORTH SIDE,Office,"150,246",1920,1,91,"4,520,378","5,830,022",,,,68.900000000000006,135.19999999999999,71.900000000000006,137.80000000000001,"1,218",8.1,41.894723149999997,-87.636670409999994,"(41.89472315, -87.63667041)"
2015,161901,Higgins C A-CPS,11710 S Morgan St,60643,WEST PULLMAN,K-12 School,"51,303",1950,1,31,"2,059,275","2,762,805",,,,94,182.6,99.1,190.1,561,10.9,41.680917440000002,-87.647444579999998,"(41.68091744, -87.64744458)"
2015,251562,Carroll-Rose-CPS,2929 W 83rd St,60652,ASHBURN,K-12 School,"85,634",1958,1,99,"744,333","1,191,017",,,,22.6,41.9,23.6,42.9,213,2.5,41.742086929999999,-87.696878249999997,"(41.74208693, -87.69687825)"
2015,250018,Douglas Park,1401 South Sacramento,60622,NORTH LAWNDALE,Other - Recreation,"57,379",1928,1,,"1,888,389","4,317,312",,,,108.2,182.3,114,188.5,609,10.6,41.862392900000003,-87.699742529999995,"(41.8623929, -87.69974253)"
2015,160330,Pullman Wheelworks,901 East 104th Street,60628,PULLMAN,Multifamily Housing,"294,300",1920,6,39,"9,145,436","5,529,820",,,,49.9,117.3,51.3,121,"2,131",7.2,41.705411859999998,-87.602265549999998,"(41.70541186, -87.60226555)"
2015,101770,10 and 30 South Wacker,10 South Wacker Drive,60606,LOOP,Office,"2,662,457",1983,1,82,"176,929,840","2,337,183",,,"66,047",67.400000000000006,209.6,68.599999999999994,213.6,"35,677",13.4,41.881607299999999,-87.637517169999995,"(41.8816073, -87.63751717)"
2015,101181,Austin 1900 Building,1900 n. Austin,60639,AUSTIN,Distribution Center,"750,000",1962,1,97,"4,282,401","19,226,407",,,,31.3,44.8,33.1,46.9,"1,882",2.5,41.915519740000001,-87.779173900000004,"(41.91551974, -87.7791739)"
2015,252036,Max Palevsky/Bartlett Commons,1101 East 56th Street,60637,HYDE PARK,Residence Hall/Dormitory,"299,490",2001,2,,"12,093,561",,,,,40.4,126.8,40.4,126.8,"2,430",8.1,41.793197999999997,-87.599626999999998,"(41.793198, -87.599627)"
2015,101969,Chicago Temple Building,77 W. Washington,60602,LOOP,Office,"238,531",1924,1,31,"13,862,874","10,838,467",,,,103.6,230.2,107.7,234.6,"3,361",14.1,41.882855190000001,-87.630615500000005,"(41.88285519, -87.6306155)"
2015,251536,Altgeld Elem-CPS,1340 W 71st St,60636,WEST ENGLEWOOD,K-12 School,"102,616",1905,1,34,"1,904,354","6,681,062",,,,83.7,126.6,89,132.19999999999999,738,7.2,41.765323709999997,-87.658373240000003,"(41.76532371, -87.65837324)"
2015,156414,De Diego Com-CPS,1313 N Claremont Ave,60622,WEST TOWN,K-12 School,"238,557",1891,1,87,"3,322,315","11,165,022",,,,60.7,92.9,64.900000000000006,97.2,"1,261",5.3,41.90580095,-87.685528610000006,"(41.90580095, -87.68552861)"
2015,251911,Cardenas Ele-CPS,2345 S Millard Ave,60623,SOUTH LAWNDALE,K-12 School,"65,670",1973,1,17,"3,946,637",,,,,60.1,188.7,62.3,195.5,793,12.1,41.848379559999998,-87.715707030000004,"(41.84837956, -87.71570703)"
2015,101682,8750 West Bryn Mawr Ave - Triangle Plaza-,8750 West Bryn Mawr Ave,60631,OHARE,Office,"691,766",1985,1,85,"39,221,384","291,229",,,,57.1,178.5,57.2,178.9,"7,896",11.4,41.983051240000002,-87.844276910000005,"(41.98305124, -87.84427691)"
2015,236816,401 East Ontario Condominiums,401 East Ontario,60611,NEAR NORTH SIDE,Multifamily Housing,"450,000",1988,1,88,"6,124,468","22,757,900",,,,64.2,95.8,67.3,98.3,"2,439",5.4,41.893207250000003,-87.616908249999994,"(41.89320725, -87.61690825)"
2015,117535,Parker Eleme-CPS,6800 S Stewart Ave,60621,ENGLEWOOD,K-12 School,"279,300",1930,1,90,"2,716,229","11,312,856",,,,50.2,73.099999999999994,53.4,76.400000000000006,"1,147",4.0999999999999996,41.770875670000002,-87.632748219999996,"(41.77087567, -87.63274822)"
2015,252042,Edelstone Center,6030 South Ellis Avenue,60637,WOODLAWN,Office,"59,741",1966,1,46,"2,273,672",,"4,706,473","1,101,252",,135.30000000000001,232.7,137.6,235.7,827,13.8,41.784889489999998,-87.601495819999997,"(41.78488949, -87.60149582)"
2015,232398,The Carlyle Condominium Association,1040 N. Lake Shore Drive,60611,NEAR NORTH SIDE,Multifamily Housing,"502,995",1966,1,10,"25,455,564","10,313,361",,,,71.099999999999994,180.4,72.5,184.8,"5,662",11.3,41.902005860000003,-87.624719819999996,"(41.90200586, -87.62471982)"
2015,172610,"Riverpoint Owner, LLC",1730 W Fullerton Ave,60654,LINCOLN PARK,Other,"202,142",1988,3,,"20,840,776","4,381,700",,,,124.8,346.5,124.8,346.5,"4,420",21.9,41.926366229999999,-87.672782549999994,"(41.92636623, -87.67278255)"
2015,231271,(IL345)-Walton On The Park,2 W. Delaware Chicago,60610,NEAR NORTH SIDE,Multifamily Housing,"370,476",2010,1,34,"13,526,785","19,300,396",,,,88.6,169.3,91.7,172.6,"3,743",10.1,41.899403890000002,-87.628768600000001,"(41.89940389, -87.6287686)"
2015,251623,Brunson Math-CPS,5600 W Iowast,60651,AUSTIN,K-12 School,"102,700",2000,1,22,"5,076,162","3,795,360",,,,86.4,194,89,196.8,"1,222",11.9,41.896695999999999,-87.765572000000006,"(41.896696, -87.765572)"
2015,250017,Humboldt Park,1440 North Sacramento,60622,NORTH LAWNDALE,Other - Recreation,"57,229",1928,1,,"2,506,746","4,593,224",,,,124.1,221.8,130.6,228.7,748,13.1,41.906756000000001,-87.701357000000002,"(41.906756, -87.701357)"
2015,161103,618 S. Michigan,618 S. Michigan,606051996,LOOP,College/University,"94,582",1925,1,,"5,089,227","3,214,079",,,,87.8,204.6,91.1,208.1,"1,193",12.6,41.873810149999997,-87.624796450000005,"(41.87381015, -87.62479645)"
2015,251770,U.S. Cellular Plaza - 8420 _ Goby LLC,8420 W. Bryn Mawr Ave.,60631-3485,OHARE,Office,"207,955",1982,1,70,"11,141,091",,,,,53.6,168.2,54,169.7,"2,238",10.8,41.981133,-87.837845000000002,"(41.981133, -87.837845)"
2015,251210,Roseland Centre 10450 S Michigan,10450 S Michigan,60628,ROSELAND,Senior Care Community,"76,788",2006,1,58,"3,422,608","3,234,000",,,,86.7,184.2,88.9,186.5,859,11.2,41.703913919999998,-87.621225170000002,"(41.70391392, -87.62122517)"
2015,251750,Sandoval Ele-CPS,5534 S ST LOUIS AVE,60629,GAGE PARK,K-12 School,"108,534",1998,1,91,"2,271,865","2,287,959",,,,42,87.9,43.8,89.8,578,5.3,41.792479520000001,-87.712326410000003,"(41.79247952, -87.71232641)"
2015,251544,Peck Element-CPS,3826 W 58th St,60629,WEST ELSDON,K-12 School,"110,691",1926,1,65,"3,435,870","3,326,150",,,,61.1,129,63.7,132.4,867,7.8,41.788412219999998,-87.719725960000005,"(41.78841222, -87.71972596)"
2015,227642,Granville Beach Condominium Association,6171 N Sheridan Rd.,60660,EDGEWATER,Multifamily Housing,"381,380",1963,1,49,"5,573,181","29,143,119",,,,91,126.1,92.4,127.5,"2,668",7,41.994444309999999,-87.654871580000005,"(41.99444431, -87.65487158)"
2015,250127,Bernard Mitchell Hospital,5815 S. Maryland Av.,60637,HYDE PARK,Hospital (General Medical & Surgical),"430,772",1983,1,10,"50,618,112",,"56,440,384",,,248.5,526.6,251.3,530,"13,917",32.299999999999997,41.789223999999997,-87.604895999999997,"(41.789224, -87.604896)"
2015,251693,MckayFrancis-CPS,6929 S Fairfield,60629,CHICAGO LAWN,K-12 School,"128,128",1928,1,17,"5,615,534","6,117,264",,,,91.6,187.7,95.3,191.6,"1,453",11.3,41.767616220000001,-87.691345580000004,"(41.76761622, -87.69134558)"
2015,251707,Herzl-CPS,3711 W Douglas Blvd,60623,NORTH LAWNDALE,K-12 School,"151,436",1916,1,95,"3,040,816",,,,,20.100000000000001,63.1,20.100000000000001,63.1,611,4,41.862336999999997,-87.718190000000007,"(41.862337, -87.71819)"
2015,231205,Cornell Village,5201 South Cornell Ave,60615,HYDE PARK,Multifamily Housing,"289,148",1969,1,19,"5,495,446","30,410,010",,,,124.2,170.1,125.4,171.4,"2,719",9.4,41.800866849999998,-87.585625620000002,"(41.80086685, -87.58562562)"
2015,156856,Presence Stone Professional Office Building,2800-2812 N Sheridan Rd,60657,LAKE VIEW,Medical Office,"96,180",1991,1,36,"4,774,241","6,412,549",,,,116.3,225.9,121.6,231.4,"1,300",13.5,41.93320344,-87.639842130000005,"(41.93320344, -87.63984213)"
2015,161131,731 S Plymouth,731 S Plymouth,606051996,LOOP,Residence Hall/Dormitory,"143,707",1897,1,42,"7,809,884","3,484,184",,,,78.599999999999994,196.1,81.7,203.4,"1,754",12.2,41.872692909999998,-87.628375980000001,"(41.87269291, -87.62837598)"
2015,101958,17 N. State LLC,17 N. State Street,60602,LOOP,Office,"409,072",1914,1,89,"15,096,606","10,046,580",,,,61.5,141.69999999999999,63.6,143.5,"3,567",8.6999999999999993,41.882572600000003,-87.627793800000006,"(41.8825726, -87.6277938)"
2015,135812,6420 W Fullerton at Bricktown Square,6420 W Fullerton,60707,BELMONT CRAGIN,Strip Mall,"137,310",1987,1,,"9,913,252","3,727,458",,,,99.3,255.2,99.8,255.6,"2,190",15.9,41.923708480000002,-87.785931610000006,"(41.92370848, -87.78593161)"
2015,176020,Hyde Park Bank,1515-1531 East 53rd Street,60615-4557,HYDE PARK,Office,"158,000",1926,1,,"3,420,144","9,309,103",,,,80.599999999999994,129.80000000000001,84.8,133.9,"1,182",7.5,41.799252500000001,-87.588442959999995,"(41.7992525, -87.58844296)"
2015,250052,Steinmetz Ac-CPS,3030 N MOBILE AVE,60634,BELMONT CRAGIN,K-12 School,"398,320",1934,1,90,"7,562,998","15,991,510",,,,59.1,101.8,60.4,103.1,"2,369",5.9,41.935603350000001,-87.784339599999996,"(41.93560335, -87.7843396)"
2015,251461,Washington E-CPS,9130 S UNIVERSITY AVE,60619,BURNSIDE,K-12 School,"81,500",1917,1,46,"2,549,843","3,391,559",,,,72.900000000000006,141.9,77.2,147.69999999999999,692,8.5,41.728571359999997,-87.596640190000002,"(41.72857136, -87.59664019)"
2015,117702,AceTechChrt-CPS,5400 S State St,60609,WASHINGTON PARK,K-12 School,"68,331",1963,1,72,"677,117","3,525,015",,,,61.5,85.3,65.3,89.3,323,4.7,41.796360999999997,-87.625781000000003,"(41.796361, -87.625781)"
2015,243199,Montgomery on Superior Condominium Association,500 W. Superior,60654,NEAR NORTH SIDE,Multifamily Housing,"403,260",2005,1,6,"18,233,083","28,837,977",,,,116.7,217.1,121,221.1,"5,195",12.9,41.895874030000002,-87.642264269999998,"(41.89587403, -87.64226427)"
2015,251668,Ravenswood E-CPS,4332 N PAULINA ST,60613,LAKE VIEW,K-12 School,"76,423",1884,1,68,"1,243,373","4,579,867",,,,76.2,114,81,119.4,493,6.5,41.960926409999999,-87.671275399999999,"(41.96092641, -87.6712754)"
2015,158420,Millenium on LaSalle,29 S. LaSalle,60603,LOOP,Office,"192,000",1902,1,78,"5,004,230","22,729,285",,,,144.4,206.1,154.9,217.1,"2,213",11.5,41.881161390000003,-87.631813469999997,"(41.88116139, -87.63181347)"
2015,251919,223 West Erie,223 West Erie Street,60654,NEAR NORTH SIDE,Office,"70,000",1890,1,87,"2,719,941","2,053,408",,,,68.2,152.80000000000001,70.3,154.30000000000001,656,9.4,41.893744660000003,-87.635307870000005,"(41.89374466, -87.63530787)"
2015,121093,#1107 Chicago South Loop,1430 S. Ashland Ave,60608,NEAR WEST SIDE,Wholesale Club/Supercenter,"142,374",2012,1,13,"15,099,485","9,397,519",,,,172.1,402.3,173.3,402.1,"3,533",24.8,41.862025559999999,-87.667815439999998,"(41.86202556, -87.66781544)"
2015,251348,Excel-Woodlawn-CPS,7530 S SOUTH SHORE DR,60649,SOUTH SHORE,K-12 School,"73,930",1975,1,87,"2,310,686","16,901",,,,31.5,98.4,32.9,103,465,6.3,41.759614550000002,-87.556801379999996,"(41.75961455, -87.55680138)"
2015,244447,One River Place Condominium Association,758 N. Larrabee,60654,NEAR NORTH SIDE,Multifamily Housing,"365,722",1929,1,90,"7,901,506","13,650,027",,,,58.9,107,61.5,109.7,"2,313",6.3,41.896219680000002,-87.643027149999995,"(41.89621968, -87.64302715)"
2015,158394,180 North Michigan,180 N Michigan,60601,LOOP,Office,"231,521",1927,1,66,"9,823,209","13,370,290",,"3,658,428",,116,209.7,118.5,212.4,"2,877",12.4,41.885523720000002,-87.62497458,"(41.88552372, -87.62497458)"
2015,251260,The Belmont by Reside,3178 North Sheridan Road,60657,LAKE VIEW,Multifamily Housing,"475,020",1924,1,67,"9,306,233","18,917,199",,,,59.4,103.3,61,104.9,"2,875",6.1,41.939733050000001,-87.640000189999995,"(41.93973305, -87.64000019)"
2015,159276,"Foxboro Properties, LLC",6201 S. Emerald,60621,ENGLEWOOD,Office,"85,641",1995,1,71,"4,706,107","1,722,190",,,,75.099999999999994,193.7,76.599999999999994,194.5,"1,037",12.1,41.770346000000004,-87.643170999999995,"(41.770346, -87.643171)"
2015,239946,Metropolitan Tower Condo Association,310 S Michigan Ave,60604,LOOP,Multifamily Housing,"579,393",1924,1,69,"13,872,366","22,499,649",,,,62.8,116,65.5,118.8,"3,982",6.9,41.877972960000001,-87.624887349999995,"(41.87797296, -87.62488735)"
2015,232458,4800-50 South Lake Park Ave,4800-50 South Lake Park Ave,60615,KENWOOD,Multifamily Housing,"627,860",1974,2,34,"16,779,390","47,915,506",,,,103,164,107,167.6,"5,916",9.4,41.80747487,-87.59126397,"(41.80747487, -87.59126397)"
2015,252046,Henry Crown Field House,5550 South University Ave.,60637,HYDE PARK,Fitness Center/Health Club/Gym,"146,501",1932,1,,"3,584,545","146,450","5,323,807",,,61.8,121.6,64.599999999999994,125,"1,082",7.4,41.7941,-87.598142999999993,"(41.7941, -87.598143)"
2015,251617,Budlong Elem-CPS,2701 W Foster Ave,60625,LINCOLN SQUARE,K-12 School,"102,352",1905,1,86,"1,938,493","4,919,403",,,,67,109.9,68.599999999999994,111.8,651,6.4,41.97552409,-87.697223010000002,"(41.97552409, -87.69722301)"
2015,101841,122 Property LLC,122 S. Michigan Ave.,60604,LOOP,Office,"512,369",1910,1,52,"26,114,500","36,862,435",,"9,218,102",,140.9,253.6,145.9,259.5,"7,691",15,41.879910580000001,-87.624931520000004,"(41.87991058, -87.62493152)"
2015,251786,Saint Clement School,642 West Deming Place,60614,LINCOLN PARK,K-12 School,"60,994",1905,1,53,"1,321,669","4,323,348",,,,92.6,142.5,99.6,149.80000000000001,495,8.1,41.927943999999997,-87.645176000000006,"(41.927944, -87.645176)"
2015,121374,8522-Edgewater,5201 Sheridan Road,60640,EDGEWATER,Supermarket/Grocery Store,"55,129",2013,1,32,"11,152,661","8,184,000",,,,350.8,791.1,355.5,796.1,"2,675",48.5,41.976491000000003,-87.654964000000007,"(41.976491, -87.654964)"
2015,167562,Lincoln Park-CPS,2016 N Orchard,60614,LINCOLN PARK,K-12 School,"341,821",1901,1,87,"6,190,347","16,287,350",,,,65.8,106.9,70.2,112.1,"2,109",6.2,41.918361179999998,-87.646170380000001,"(41.91836118, -87.64617038)"
2015,208356,Cameron Elem-CPS,1234 N Monticello Ave,60651,HUMBOLDT PARK,K-12 School,"137,334",1897,1,42,"2,435,812","6,878,005",,,,67.8,108.3,72.900000000000006,114,855,6.2,41.904114409999998,-87.718244870000007,"(41.90411441, -87.71824487)"
2015,101737,100 North Riverside Plaza,100 N Riverside Plaza,60606,NEAR WEST SIDE,Office,"822,563",1990,1,81,"109,231,222","510,349",,,"97,893",133.5,417.7,135.4,423.7,"21,980",26.7,41.883845649999998,-87.638786249999995,"(41.88384565, -87.63878625)"
2015,251532,ChappellEliz-CPS,5145 N Leavitt St,60625,LINCOLN SQUARE,K-12 School,"87,149",1930,1,41,"3,341,539","5,473,993",,,,101.2,186.3,102.6,187.9,962,11,41.975088,-87.684224,"(41.975088, -87.684224)"
2015,121212,Village Market,333 E. Benton,60601,LOOP,Other - Mall,"136,783",2011,1,,"16,874,039","19,495,453",,,,265.89999999999998,537,269.3,540.6,"4,426",32.4,41.88548291,-87.618460319999997,"(41.88548291, -87.61846032)"
2015,100856,United Center,1901 West Madison St.,60612,NEAR WEST SIDE,Indoor Arena,"960,000",1994,1,,"11,479,770","12,102,665",,,,24.6,50.8,,,"2,949",3.1,41.880676719999997,-87.674182070000001,"(41.88067672, -87.67418207)"
2015,172693,The Buyer's Market Incorporated,4545 W. Division St.,60651,HUMBOLDT PARK,Enclosed Mall,"153,760",1995,1,,"4,186,497","7,464,808",,,,75.8,136.5,80.099999999999994,140.80000000000001,"1,238",8,41.901628799999997,-87.740467690000003,"(41.9016288, -87.74046769)"
2015,158724,202,2200 S. Western Ave,60608,LOWER WEST SIDE,Supermarket/Grocery Store,"65,058",1970,1,47,"9,044,659","7,019,071",,,,246.9,549.79999999999995,248.8,551.79999999999995,"2,190",33.700000000000003,41.851331389999999,-87.686903760000007,"(41.85133139, -87.68690376)"
2015,250057,ENGLEWOOD HEALTH CENTER,641 W. 63rd St.,60621,ENGLEWOOD,Outpatient Rehabilitation/Physical Therapy,"54,189",1970,1,,"3,467,015","2,053,788",,,,101.9,240.7,105,244,806,14.9,41.779783029999997,-87.641249740000006,"(41.77978303, -87.64124974)"
2015,158526,Chicago Marriott Downtown Magnificent Mile,541 North Rush Street,60611,NEAR NORTH SIDE,Hotel,"950,000",1978,1,44,"48,385,333","63,902,698",,,,118.2,230.6,120.1,230.7,"13,115",13.8,41.89213144,-87.624858930000002,"(41.89213144, -87.62485893)"
2015,100447,211 E. Chicago Ave.,211 E. Chicago Ave.,60611,NEAR NORTH SIDE,Office,"394,230",1965,1,90,"15,010,091","10,723,024",,,,65.3,148.1,68,151.5,"3,585",9.1,41.896449680000003,-87.622565750000007,"(41.89644968, -87.62256575)"
2015,251699,NathanSDavis-CPS,3014 W 39th Place,60632,BRIGHTON PARK,K-12 School,"121,557",1905,1,51,"3,594,784","6,783,566",,,,85.4,151.5,89.7,156,"1,083",8.9,41.822197850000002,-87.700305909999997,"(41.82219785, -87.70030591)"
2015,251604,Revere Eleme-CPS,1010 E 72ND ST,60619,GREATER GRAND CROSSING,K-12 School,"81,610",1903,1,9,"2,238,438","8,643,330",,,,133.30000000000001,197.3,141.6,206,909,11.1,41.76457079,-87.600307310000005,"(41.76457079, -87.60030731)"
2015,251943,6338000111,1825 W Lawrence Ave,60640,LINCOLN SQUARE,Financial Office,"53,684",1962,1,35,"3,793,346","1,963,366",,,,107.2,260.3,110.6,263.8,866,16.100000000000001,41.96854338,-87.675764549999997,"(41.96854338, -87.67576455)"
2015,251599,Orozco Eleme-CPS,1940 W 18th St,60608,LOWER WEST SIDE,K-12 School,"107,722",1999,1,48,"3,984,073","3,140,828",,,,66.099999999999994,146.69999999999999,68.400000000000006,149.1,967,9,41.857976370000003,-87.675124519999997,"(41.85797637, -87.67512452)"
2015,251224,142 East Ontario,142 E Ontario,60611,NEAR NORTH SIDE,Office,"140,923",1986,1,52,"11,148,707",,,,,79.099999999999994,248.4,80.900000000000006,254.1,"2,240",15.9,41.893593299999999,-87.623639859999997,"(41.8935933, -87.62363986)"
2015,101881,25 E Washington,25 East Washington Street,60602,LOOP,Office,"488,324",1914,1,94,"16,540,973",,"4,735,953",,,43.6,118,44.1,118.1,"3,638",7.4,41.882917599999999,-87.626668640000005,"(41.8829176, -87.62666864)"
2015,251355,Evers Elemen-CPS,9811 S Lowe Ave,60628,WASHINGTON HEIGHTS,K-12 School,"52,968",2010,1,97,"687,022","1,813,618",,,,47.2,76.7,50,79.599999999999994,234,4.4000000000000004,41.71565288,-87.638964740000006,"(41.71565288, -87.63896474)"
2015,251732,Eberhart Ele-CPS,3400 W 65th Place,60629,CHICAGO LAWN,K-12 School,"164,398",1906,1,46,"5,084,167","5,218,287",,,,62.7,130.4,65.400000000000006,133.30000000000001,"1,299",7.9,41.774749710000002,-87.708583419999997,"(41.77474971, -87.70858342)"
2015,159424,"Second Prairie Shores, LLC",2951 S King Drive,60616,DOUGLAS,Multifamily Housing,"289,267",1960,1,23,"4,799,241","32,352,427",,,,128.4,169.5,134.4,175.8,"2,683",9.3000000000000007,41.840506619999999,-87.616205030000003,"(41.84050662, -87.61620503)"
2015,121038,Sherman Plaza,161-205 W. 87th Street,60620,CHATHAM,Other - Mall,"60,620",2008,1,,"3,655,320","2,052,048",,,,94.1,224.9,96.4,227.2,843,13.9,41.734994749999998,-87.629009629999999,"(41.73499475, -87.62900963)"
2015,250150,Reid Murdoch Center,315-331 N. LaSalle,60654,NEAR NORTH SIDE,Office,"335,281",1912,1,40,"23,270,911","21,957,088",,,,134.9,286.7,138.80000000000001,290.8,"5,842",17.399999999999999,41.888100680000001,-87.63181582,"(41.88810068, -87.63181582)"
2015,231486,Waterford Condominium,4170 N Marine Drive,60613,UPTOWN,Multifamily Housing,"335,787",1973,1,29,"15,327,949","7,787,177",,,,68.8,167.7,71.5,174,"3,493",10.4,41.957651830000003,-87.647107599999998,"(41.95765183, -87.6471076)"
2015,100867,Rush University Medical Center,1653 West Congress Parkway,60612,NEAR WEST SIDE,Hospital (General Medical & Surgical),"4,098,526",1982,9,9,"461,845,249","300,796,332","318,219,795",,,263.7,524.29999999999995,266.89999999999998,525.70000000000005,"129,897",31.7,41.875121,-87.668004999999994,"(41.875121, -87.668005)"
2015,252033,Erie Elementary Charter School,1405 N. Washtenaw,60622,WEST TOWN,K-12 School,"58,856",2013,1,83,"1,531,980","1,889,892",,,,58.1,115.4,60.9,118.7,408,6.9,41.906741609999997,-87.694106070000004,"(41.90674161, -87.69410607)"
2015,103617,33 E Congress,33 E Congress,606051996,LOOP,College/University,"150,150",1925,1,,"7,087,475","4,135,966",,,,74.7,177.1,77.599999999999994,180.1,"1,644",10.9,41.875401119999999,-87.626511359999995,"(41.87540112, -87.62651136)"
2015,124312,9376,5033 North Elston,60630,ALBANY PARK,Retail Store,"87,177",1998,1,81,"3,200,828","467,500",,,,42.1,120.9,42.1,121,668,7.7,41.972172989999997,-87.746696900000003,"(41.97217299, -87.7466969)"
2015,244613,Fairbanks at Cityfront Plaza,240 E Illinois,60611,NEAR NORTH SIDE,Multifamily Housing,"449,954",2006,1,77,"10,216,326","24,029,400",,,,76.099999999999994,127.4,78.7,129.69999999999999,"3,329",7.4,41.891399249999999,-87.620797150000001,"(41.89139925, -87.62079715)"
2015,160300,750 N. Rush,750 N. Rush,60611,NEAR NORTH SIDE,Multifamily Housing,"325,000",1992,1,72,"8,409,403","8,518,707",,,,52.1,108.8,52.1,108.7,"2,142",6.6,41.896320000000003,-87.625538000000006,"(41.89632, -87.625538)"
2015,175975,626 West Jackson,626 West Jackson Boulevard,60661,NEAR WEST SIDE,Office,"124,383",1920,1,76,"7,433,475",,,,,59.8,187.7,60.6,190.3,"1,494",12,41.878229660000002,-87.643592720000001,"(41.87822966, -87.64359272)"
2015,101676,O'Hare Plaza I,8725-45 W. Higgins Road,60631,OHARE,Office,"538,105",1969,1,89,"24,407,350","17,357,999",,,,77.599999999999994,176.3,78,176.7,"5,826",10.8,41.986811439999997,-87.844644619999997,"(41.98681144, -87.84464462)"
2015,100372,Holy Cross Hospial,2701 W 68th Street,60629,CHICAGO LAWN,Hospital (General Medical & Surgical),"409,910",1922,1,16,"32,239,913","116,219,010",,,,362.2,544.70000000000005,361.5,544,"12,650",30.9,41.770003000000003,-87.690841000000006,"(41.770003, -87.690841)"
2015,103638,The Field Museum,1400 South Lake Shore Drive,60605,NEAR SOUTH SIDE,Mixed Use Property,"1,300,557",1921,1,,"67,035,076","84,273,408",,,,116.3,229.5,118.5,231.8,"17,902",13.8,41.866211,-87.61703464,"(41.866211, -87.61703464)"
2015,251590,Tarkington S-CPS,3330 W 71ST ST,60629,CHICAGO LAWN,K-12 School,"136,289",2005,1,20,"6,288,524","6,814,374",,,,96.1,197.4,98.7,199.1,"1,625",11.9,41.764372999999999,-87.705686,"(41.764373, -87.705686)"
2015,159739,Ella Flagg Young Apartments,4645 N. Sherdian Road,60640,UPTOWN,Multifamily Housing,"299,019",1968,1,97,"2,563,361","12,913,800",,,,51.8,72.3,53,73.599999999999994,"1,201",4,41.966650209999997,-87.654169170000003,"(41.96665021, -87.65416917)"
2015,251725,Sauganash El-CPS,6040 N KILPATRICK AVE,60646,FOREST GLEN,K-12 School,"68,612",1936,1,70,"2,198,403","2,737,705",,,,71.900000000000006,142.5,72.7,143.4,587,8.6,41.991452430000002,-87.746214190000003,"(41.99145243, -87.74621419)"
2015,250124,Albert Merritt Billings,950 East 59th St.,60637,HYDE PARK,Office,"488,322",1927,1,84,"19,625,237",,"15,104,100",,,71.099999999999994,163.4,73.400000000000006,166.1,"4,946",10.1,41.787764000000003,-87.602284999999995,"(41.787764, -87.602285)"
2015,158780,4001 N. Ravenswood  LLC,4001 N Ravenswood,60613,LAKE VIEW,Other,"76,800",2008,1,,"1,670,382","1,540,539",,,,41.8,89.4,41.9,89.6,417,5.4,41.954483070000002,-87.673345929999996,"(41.95448307, -87.67334593)"
2015,251505,Hawthorne El-CPS,3319 N Clifton Ave,60657,LAKE VIEW,K-12 School,"71,199",1954,1,85,"1,291,235","3,700,425",,,,70.099999999999994,111.5,74.2,115.8,456,6.4,41.942311019999998,-87.657558570000006,"(41.94231102, -87.65755857)"
2015,251679,Lowell Eleme-CPS,3320 W Hirsch St,60651,HUMBOLDT PARK,K-12 School,"121,800",1888,1,67,"1,771,804","7,325,336",,,,74.7,108.8,80,114.8,745,6.1,41.906694139999999,-87.710508230000002,"(41.90669414, -87.71050823)"
2015,158426,Hampton Inn & Suites Chicago - Downtown,33 W Illinois,60654,NEAR NORTH SIDE,Hotel,"160,000",1999,1,14,"9,513,403","14,544,099",,,,150.4,282.10000000000002,152.5,283,"2,684",16.8,41.890812830000002,-87.629340450000001,"(41.89081283, -87.62934045)"
2015,242563,(IL279) - 212 W Washington Condo,212 W Washington Street,60606,LOOP,Multifamily Housing,"278,198",1999,1,25,"10,462,461","10,877,652",,,,76.7,159.1,76.7,159.1,"2,680",9.6,41.88326842,-87.635121429999998,"(41.88326842, -87.63512143)"
2015,101755,Harris Bank Building,115 S. LaSalle Street,60603,LOOP,Office,"1,526,102",1974,1,58,"89,630,340","85,890,574",,,,115,243.5,117.5,246.2,"22,570",14.8,41.880313260000001,-87.631911860000002,"(41.88031326, -87.63191186)"
2015,236913,Lake Park Plaza Condominium Association,3930 N. Pine Grove Ave.,60613,LAKE VIEW,Multifamily Housing,"491,400",1969,1,60,"9,959,857","30,730,099",,,,82.8,129.30000000000001,86.8,133.6,"3,633",7.4,41.954050950000003,-87.648534889999993,"(41.95405095, -87.64853489)"
2015,251404,Burr Element-CPS,1621 W Wabansia Ave,60622,WEST TOWN,K-12 School,"60,929",1890,1,67,"925,141","3,633,077",,,,74.8,110.3,79.7,115.7,379,6.2,41.912405,-87.668588999999997,"(41.912405, -87.668589)"
2015,250019,Calumet Park,9801 South Avenue G,60617,EAST SIDE,Other - Recreation,"57,888",1924,1,,"2,741,218","268,096",,,,52,153.6,52,153.6,565,9.8000000000000007,41.713380880000003,-87.527913040000001,"(41.71338088, -87.52791304)"
2015,251429,Mayo Element-CPS,245 E 37th St,60653,DOUGLAS,K-12 School,"62,750",1961,1,87,"871,018","3,198,961",,,,64.900000000000006,97.1,68.900000000000006,101.4,345,5.5,41.827401000000002,-87.620125999999999,"(41.827401, -87.620126)"
2015,100438,Palmolive Building Condominium Association,913 921 N Michigan Ave.,60611,NEAR NORTH SIDE,Multifamily Housing,"397,200",1929,1,11,"23,777,628","25,406,334",,,,123.8,255.1,126,257.39999999999998,"6,127",15.4,41.899794999999997,-87.624109000000004,"(41.899795, -87.624109)"
2015,250038,Brooks Colle-CPS,250 E 111th St,60628,ROSELAND,K-12 School,"255,116",1914,1,24,"9,582,728","16,204,690",,,,101.1,184.6,105.7,190,"2,786",10.9,41.693878669999997,-87.616988079999999,"(41.69387867, -87.61698808)"
2015,251347,Evergreen Ac-CPS,3537 S Paulina St,60609,MCKINLEY PARK,K-12 School,"50,060",1907,1,28,"3,027,515","2,369,671",,,,107.8,239.6,111.3,243.3,734,14.7,41.82903314,-87.667571089999996,"(41.82903314, -87.66757109)"
2015,251885,Dugan-CPS,4541 S Wood St,60609,NEW CITY,K-12 School,"86,786",1990,1,100,"309,926",,,,,3.6,11.2,3.6,11.3,62,0.7,41.810936490000003,-87.669569319999994,"(41.81093649, -87.66956932)"
2015,101862,101 North Wacker,101 North Wacker Drive,60606,LOOP,Office,"663,093",1980,1,83,"49,064,526",,,,,74,232.3,74.7,234.5,"9,858",14.9,41.88356984,-87.6364138,"(41.88356984, -87.6364138)"
2015,251501,Mayer-CPS,2250 N Clifton Ave,60614,LINCOLN PARK,K-12 School,"73,514",1959,1,82,"1,245,072","3,240,605",,,,61,99.5,64.5,103.2,422,5.7,41.922967229999998,-87.657521290000005,"(41.92296723, -87.65752129)"
2015,244592,Museum Park Place South,1901 S. Calumet Ave,60616,NEAR SOUTH SIDE,Multifamily Housing,"537,033",2009,1,53,"18,953,063","6,644,824",,,,47.7,123.8,48.1,123.3,"4,161",7.7,41.856221959999999,-87.618640819999996,"(41.85622196, -87.61864082)"
2015,251573,Hamline Elem-CPS,4747 S Bishop St,60609,NEW CITY,K-12 School,"79,511",1898,1,27,"2,459,435","4,464,059",,,,87.1,156.1,90.8,158.9,731,9.1999999999999993,41.807580289999997,-87.660918969999997,"(41.80758029, -87.66091897)"
2015,103632,NMH Feinberg Pavilion and Galter Pavilion,251 E Huron St.,60654,NEAR NORTH SIDE,Hospital (General Medical & Surgical),"2,200,000",1999,1,69,"183,427,994","276,809,341",,,,209.2,393.9,210.3,393.7,"51,556",23.4,41.894586660000002,-87.621528339999998,"(41.89458666, -87.62152834)"
2015,101038,2111 W. Roosevelt Rd.,2111 W. Roosevelt Rd.,60608,NEAR WEST SIDE,Office,"458,947",2006,1,94,"25,580,143","13,255,186",,,"70,696",84.8,205.5,86.6,206.7,"5,849",12.7,41.865784009999999,-87.679793129999993,"(41.86578401, -87.67979313)"
2015,127877,Howard & Western Shopping Center,7510-7578 North Western Avenue,60645,WEST RIDGE,Retail Store,"69,302",1957,1,,"5,869,902","10,997,127",,,,243.4,432.6,245.4,434.7,"1,763",25.4,42.01798909,-87.690839069999996,"(42.01798909, -87.69083907)"
2015,251225,314 West Superior Street,314 West Superior Street,60654,NEAR NORTH SIDE,Office,"109,032",1910,1,83,"5,177,986","2,789,725",,,,73.099999999999994,176,75.2,178.2,"1,189",10.9,41.895587970000001,-87.636591150000001,"(41.89558797, -87.63659115)"
2015,160454,River North Park,320 West Illinois St.,60654,NEAR NORTH SIDE,Multifamily Housing,"461,526",1985,1,30,"19,885,470","5,023,501",,,,54,146.69999999999999,55.1,149.9,"4,262",9.1999999999999993,41.890777999999997,-87.636431000000002,"(41.890778, -87.636431)"
2015,251209,South Centre- Burley & 92nd,9230 S. Burley Ave,60617,SOUTH CHICAGO,Senior Care Community,"144,411",2009,2,77,"4,626,283","5,776,200",,,,72,142.6,74.7,145.4,"1,236",8.6,41.727379999999997,-87.545610999999994,"(41.72738, -87.545611)"
2015,250145,180 North Wabash,180 N Wabash,60601,LOOP,Office,"162,202",1919,1,73,"6,528,200","5,733,404",,,,75.599999999999994,163.5,78.3,166.3,"1,616",10,41.885423510000003,-87.626667819999994,"(41.88542351, -87.62666782)"
2015,103620,Grossinger City Autoplex,1530 N Dayton St,60642,NEAR NORTH SIDE,Automobile Dealership,"275,000",2008,1,,"8,864,028","5,420,902",,,,51.9,121.9,54.8,126.8,"2,069",7.5,41.910105999999999,-87.649495000000002,"(41.910106, -87.649495)"
2015,251601,Edwards Elem-CPS,4815 S Karlov Ave,60632,ARCHER HEIGHTS,K-12 School,"124,950",1925,1,100,"416,104","4,590,308",,,,40.1,49,43.1,52.5,327,2.6,41.805460539999999,-87.725568199999998,"(41.80546054, -87.7255682)"
2015,158392,55 West Wacker Drive,55 West Wacker Drive,60601,LOOP,Office,"278,671",1967,1,76,"10,996,627","13,553,452",,,,88.1,175,92.1,179.2,"2,929",10.5,41.88652287,-87.629870580000002,"(41.88652287, -87.62987058)"
2015,250141,180 North Wacker,180 North Wacker,60606,LOOP,Office,"70,909",1923,1,24,"7,512,548",,,,,105.9,332.7,107.8,338.4,"1,509",21.3,41.885334710000002,-87.637253430000001,"(41.88533471, -87.63725343)"
2015,251735,Pritzker Ele-CPS,2009 W SCHILLER ST,60622,WEST TOWN,K-12 School,"66,300",1975,1,73,"2,073,698","4,003,862",,,,91.7,161.6,96.7,167,629,9.5,41.906545780000002,-87.677919549999999,"(41.90654578, -87.67791955)"
2015,251586,AndersenElem-CPS,1148 N Honore St,60622,WEST TOWN,K-12 School,"92,173",1900,1,79,"1,651,334","6,319,453",,,,86.5,128.19999999999999,93.1,135.80000000000001,667,7.2,41.902457060000003,-87.674028559999996,"(41.90245706, -87.67402856)"
2015,100019,Dixon Building,411 415 South Wells Street,60607,LOOP,Office,"60,000",1908,1,77,"2,263,326","2,458,764",,,,78.7,161.5,81.599999999999994,164,585,9.8000000000000007,41.876425519999998,-87.63335549,"(41.87642552, -87.63335549)"
2015,100332,Lindblom Col-CPS,6130 S Wolcott Ave,60636,WEST ENGLEWOOD,K-12 School,"305,788",1917,1,79,"6,704,034","14,486,522",,,,69.3,118.6,73.099999999999994,122.6,"2,116",6.9,41.782065969999998,-87.672209339999995,"(41.78206597, -87.67220934)"
2015,251634,Calmeca Fine-CPS,3456 W 38th Street,60632,BRIGHTON PARK,K-12 School,"108,624",2010,1,61,"4,075,644","1,536,794",,,,51.7,132.69999999999999,52.6,133.6,901,8.3000000000000007,41.82509374,-87.711415599999995,"(41.82509374, -87.7114156)"
2015,173884,UNO Rogers Park,7416 N Ridge Rd.,60645,WEST RIDGE,K-12 School,"204,041",1865,1,96,"2,308,986","11,715,374",,,,68.7,95.8,70.3,97.5,"1,086",5.3,42.01645164,-87.685002859999997,"(42.01645164, -87.68500286)"
2015,172592,Hall Plaza West,4628-4650 W. Diversey Ave,60639,HERMOSA,Strip Mall,"66,836",1957,1,,"4,356,599","412,673,726",,,,"6,239.6","6,687.8","6,239.6","6,687.8","22,794",341,41.931621900000003,-87.742599040000002,"(41.9316219, -87.74259904)"
2015,164777,Professional Office Building,840 W. Irving Park Rd,60613,UPTOWN,Medical Office,"51,825",2006,1,,"3,939,710",,,,,76,238.7,76.900000000000006,241.6,792,15.3,41.954554000000002,-87.651379000000006,"(41.954554, -87.651379)"
2015,160368,River Bank Lofts Condominium Association,550 N. Kingsbury St.,60610,NEAR NORTH SIDE,Multifamily Housing,"257,529",1905,1,91,"4,576,209","5,214,200",,,,38,77.099999999999994,39.299999999999997,78.2,"1,196",4.5999999999999996,41.891982480000003,-87.640755400000003,"(41.89198248, -87.6407554)"
2015,251656,Ellington El-CPS,243 N Parkside Ave,60644,AUSTIN,K-12 School,"112,380",2003,1,7,"5,783,173","6,628,659",,,,110.4,223.5,114.1,226.3,"1,514",13.5,41.884874000000003,-87.766614000000004,"(41.884874, -87.766614)"
2015,101812,One North Dearborn,1-17 N. Dearborn Street,60602-3902,LOOP,Office,"1,046,276",1902,1,79,"53,592,386","3,742",,"23,184,984",,73.400000000000006,183,73.599999999999994,185.5,"11,989",11.5,41.882342180000002,-87.628664389999997,"(41.88234218, -87.62866439)"
2015,251741,Robert Healy-CPS,3010 S PARNELL AVE,60616,BRIDGEPORT,K-12 School,"114,704",1962,1,73,"2,583,113","4,055,645",,,,57.9,107.8,60.8,110.9,734,6.4,41.83941849,-87.640760060000005,"(41.83941849, -87.64076006)"
2015,103804,190 N. State Street,190 N. State Street,60601,LOOP,Office,"230,000",1917,1,74,"14,429,686",,,,,62.7,197,62.7,197,"2,899",12.6,41.885407069999999,-87.628439830000005,"(41.88540707, -87.62843983)"
2015,103716,The Palmer House Hotel,17 E. Monroe Street,60603,LOOP,Hotel,"1,695,000",1925,3,33,"72,166,325","176,443,895","-16,638,836","-1,267,308",,136.1,230.4,139.30000000000001,233,"22,699",13.4,41.880322229999997,-87.626951840000004,"(41.88032223, -87.62695184)"
2015,101972,150 North Wacker Drive,150 North Wacker Drive,60606,LOOP,Office,"265,117",1970,1,82,"10,525,945","18,427,406",,,,109.2,197.6,114.9,203.6,"3,094",11.7,41.88476971,-87.637345019999998,"(41.88476971, -87.63734502)"
2015,251734,Kelvyn Park-CPS,4343 W Wrightwood Ave,60639,HERMOSA,K-12 School,"188,084",1918,1,85,"4,020,769","11,897,927",,,,84.6,133.5,90,139.19999999999999,"1,440",7.7,41.927237290000001,-87.736045059999995,"(41.92723729, -87.73604506)"
2015,251685,Johnson College Prep,6350 S Stewart St,60621,ENGLEWOOD,K-12 School,"63,816",1963,1,78,"2,050,601","3,920,743",,,,93.6,165.4,98.6,170.7,620,9.6999999999999993,41.77833596,-87.635563289999993,"(41.77833596, -87.63556329)"
2015,102332,Truman College,1145 West Wilson Ave,60640,UPTOWN,College/University,"954,142",1976,3,,"24,616,253","23,095,355",,,,50,106.4,52.1,108.6,"6,172",6.5,41.964533799999998,-87.659006590000004,"(41.9645338, -87.65900659)"
2015,101756,Cook County Building,118 N. Clark St.,60602,LOOP,Office,"638,592",1906,1,52,"40,677,284","27,206,201",,,,106.3,244.7,109.1,247.3,"9,618",15.1,41.883853279999997,-87.631679660000003,"(41.88385328, -87.63167966)"
2015,102587,Carver Milli-CPS,13100 S Carver Dr,60827,RIVERDALE,K-12 School,"298,689",1973,1,67,"14,365,127",,,,,48.1,151,48.7,152.9,"2,886",9.6999999999999993,41.657558999999999,-87.592115000000007,"(41.657559, -87.592115)"
2015,250171,The Heritage at Millennium Park,130 North Garland Court,60602,LOOP,Multifamily Housing,"927,832",2005,1,17,"50,356,207","17,577,950",,,,73.2,190.3,76.2,197.5,"11,051",11.9,41.884349,-87.625378999999995,"(41.884349, -87.625379)"
2015,233760,Park Newberry,55 W. Delaware Place,60610,NEAR NORTH SIDE,Multifamily Housing,"260,055",1995,1,4,"10,569,595","22,748,616",,,,128.1,219.5,133.19999999999999,224.8,"3,332",12.8,41.898219359999999,-87.630567619999994,"(41.89821936, -87.63056762)"
2015,251891,Westinghouse-CPS,3301 W FRANKLIN BLVD,60624,HUMBOLDT PARK,K-12 School,"225,314",1990,1,15,"11,882,638","7,955,092",,,,88,202.7,90.3,204.4,"2,810",12.5,41.889761,-87.709911000000005,"(41.889761, -87.709911)"
2015,250002,Arturo Velasquez Institute,2800 South Western,60608,LOWER WEST SIDE,College/University,"175,000",1996,1,,"7,862,664","6,398,458",,,,81.5,179.5,84.4,181.3,"1,920",11,41.840995650000004,-87.686277779999998,"(41.84099565, -87.68627778)"
2015,103661,One Magnificent Mile,980 North Michigan Avenue,60611,NEAR NORTH SIDE,Multifamily Housing,"1,041,247",1983,1,56,"58,612,291",,,,,56.3,176.8,57.9,181.8,"11,776",11.3,41.900556280000004,-87.62421483,"(41.90055628, -87.62421483)"
2015,251518,Pulaski Fine-CPS,2230 W MCLEAN AVE,60647,LOGAN SQUARE,K-12 School,"103,904",1949,1,83,"2,526,529","3,239,494",,,,55.5,109.1,59.3,114.9,680,6.5,41.918786070000003,-87.683779090000002,"(41.91878607, -87.68377909)"
2015,251312,#1961 Elston/Leavitt,2542 Elston Ave,60622,LOGAN SQUARE,Retail Store,"119,178",2002,1,59,"6,559,580","3,591,695",,,,85.2,204.5,87.6,207,"1,509",12.7,41.927701999999996,-87.681329000000005,"(41.927702, -87.681329)"
2015,251580,Gillespie El-CPS,9301 S State St,60619,ROSELAND,K-12 School,"91,300",1962,1,47,"1,930,354","7,201,624",,,,100,149.19999999999999,106.1,155.6,770,8.4,41.72471299,-87.623207620000002,"(41.72471299, -87.62320762)"
2015,101975,Daley Center,14 East Jackson Blvd.,60604,LOOP,College/University,"371,257",1930,1,,"8,369,271","16,383,088",,"6,302,136",,83.6,134.1,86.7,137.5,"2,884",7.8,41.878495569999998,-87.627246639999996,"(41.87849557, -87.62724664)"
2015,132117,HOME DEPOT,200 w. 87th st,60620,CHATHAM,Retail Store,"128,000",1996,1,56,"6,526,593","5,033,132",,,,90.3,201.4,93.5,204.8,"1,579",12.3,41.737216330000003,-87.63117106,"(41.73721633, -87.63117106)"
2015,175450,Goodman Theatre,56-60 W. Randolph St.,60601,LOOP,Office,"50,913",2000,1,,"3,104,606","8,508,000",,,,228.1,366.9,232.7,371.8,"1,076",21.1,41.884481579999999,-87.629730230000007,"(41.88448158, -87.62973023)"
2015,124308,Walmart Supercenter #01-5965,10900 S. Doty Avenue,60628,PULLMAN,Wholesale Club/Supercenter,"155,765",2013,1,33,"14,448,759","7,265,838",,,,139.4,340.2,142.6,342.5,"3,289",21.1,41.693398999999999,-87.598727999999994,"(41.693399, -87.598728)"
2015,101727,500 West Madison,500 West Madison Street,60661,NEAR WEST SIDE,Office,"1,855,810",1986,1,85,"105,725,153",,,,,57,178.9,58.1,182.5,"21,242",11.4,41.88239806,-87.640477959999998,"(41.88239806, -87.64047796)"
2015,173322,CHICAGO SOUTH (1488),8560 S COTTAGE GROVE AVE,60619,CHATHAM,Retail Store,"126,880",2002,1,82,"6,461,902","2,815,500",,,,73.099999999999994,183.2,74.599999999999994,184,"1,448",11.4,41.739327670000002,-87.606766829999998,"(41.73932767, -87.60676683)"
2015,236031,City Centre Condominium,208 W. Washington Street,60606,LOOP,Multifamily Housing,"390,000",1934,1,74,"6,494,084","19,171,168",,,,65.8,103.9,68.099999999999994,106.3,"2,323",6,41.883288,-87.634141999999997,"(41.883288, -87.634142)"
2015,252056,Rosenwald Hall and Walker Museum,1115-25 East 58th Street,60637,HYDE PARK,Office,"102,569",1893,2,,"2,758,979",,"4,208,528",,,67.900000000000006,133.80000000000001,69.3,135.4,834,8.1,41.78900616,-87.598654920000001,"(41.78900616, -87.59865492)"
2015,134421,Market Place at Six Corners 10361,4612 4652 W IRVING PARK RD,60641,PORTAGE PARK,Other - Mall,"77,966",1997,1,,"14,308,614","801,716",,,,193.8,587.1,193.4,585.29999999999995,"2,917",37.4,41.955515630000001,-87.744919330000002,"(41.95551563, -87.74491933)"
2015,102283,Presence St Joseph Hospital - Chicago,2900 N Lake Shore Drive,60657,LAKE VIEW,Hospital (General Medical & Surgical),"681,807",1960,2,46,"61,608,744","91,953,405",,,,225.2,425.3,227.6,425.5,"17,262",25.3,41.934984489999998,-87.637283080000003,"(41.93498449, -87.63728308)"
2015,250053,Taft High Sc-CPS,6545 W HURLBUT ST,60634,NORWOOD PARK,K-12 School,"388,970",1939,1,86,"10,686,084","11,845,840",,,,57.9,118.2,58.9,119.3,"2,776",7.1,41.985587000000002,-87.791777999999994,"(41.985587, -87.791778)"
2015,101742,James R Thompson Center,100 W. Randolph St.,60601,LOOP,Office,"1,200,000",1985,1,48,"84,106,482","45,586,426",,,,108.1,260,111,263.10000000000002,"19,319",16.100000000000001,41.885172869999998,-87.631731819999999,"(41.88517287, -87.63173182)"
2015,251444,Gompers Fine-CPS,12302 S State St,60628,WEST PULLMAN,K-12 School,"75,744",1926,1,81,"1,635,124","3,000,963",,,,61.2,109.4,64.400000000000006,112.9,488,6.4,41.6700175,-87.623187849999994,"(41.6700175, -87.62318785)"
2015,251333,Sanctuary Hall,2358 N. Sheffield,60614,LINCOLN PARK,College/University,"103,915",1989,1,,"1,453,976","5,773,463",,,,69.599999999999994,102.3,73.2,106.1,599,5.8,41.924560999999997,-87.653600999999995,"(41.924561, -87.653601)"
2015,159287,Medical District Apartments,901-903 S Ashland Ave,60607,NEAR WEST SIDE,Multifamily Housing,"343,718",1971,1,38,"9,666,626","23,279,747",,,,95.9,159.4,99.9,163.6,"3,179",9.1999999999999993,41.86976757,-87.666013750000005,"(41.86976757, -87.66601375)"
2015,102460,Museum of Science and Industry,5700 South Lake Shore Drive,60637,HYDE PARK,Museum,"1,211,750",1893,1,,"42,097,388","27,057,126",,,,57.1,132.4,58.8,134.19999999999999,"9,876",8.1999999999999993,41.790554669999999,-87.582951230000006,"(41.79055467, -87.58295123)"
2015,244311,3750 North Lake Shore Drive,3750 N. Lake Shore Drive,60613,LAKE VIEW,Multifamily Housing,"391,234",1926,1,91,"5,582,837","18,741,000",,,,62.2,95.1,65.2,98.1,"2,117",5.4,41.951730820000002,-87.645365459999994,"(41.95173082, -87.64536546)"
2015,160280,"The Ritz-Carlton Residences, Chicago, Magnificent Mile",118 E Erie Street,60611,NEAR NORTH SIDE,Multifamily Housing,"326,409",2012,1,8,"11,625,104","14,293,924",,"11,069,616",,113.3,191.7,114.5,193.5,,,41.894444579999998,-87.624636949999996,"(41.89444458, -87.62463695)"
2015,250078,Westhaven Superblock,1815 W. MONROE STREET,60612,NEAR WEST SIDE,Multifamily Housing,"483,032",1969,1,100,"1,360,048","6,559,000",,,,16.399999999999999,23.1,16.7,23.4,622,1.3,41.880052749999997,-87.672310850000002,"(41.88005275, -87.67231085)"
2015,103669,Soldier Field,1410 South Museum Campus Drive,60605,NEAR SOUTH SIDE,Stadium (Open),"1,548,634",1924,1,,"108,529,613","16,899,451",,,,81,231.5,82.7,235.7,"22,703",14.7,41.863883999999999,-87.614512000000005,"(41.863884, -87.614512)"
2015,244826,Park Tower Condominium Association,5415 N. Sheridan Rd.,60640,EDGEWATER,Multifamily Housing,"862,821",1971,1,53,"18,991,079","53,334,815",,,,83.8,134,87.9,138.30000000000001,"6,648",7.7,41.980300049999997,-87.654456069999995,"(41.98030005, -87.65445607)"
2015,121264,Chicago Theological Seminary,1407 East 60th Street,60637,WOODLAWN,College/University,"80,489",2011,1,,"2,652,030","100,690","5,411,913","1,311,840",,117.7,202,116.9,201.1,967,12,41.786045999999999,-87.591237000000007,"(41.786046, -87.591237)"
2015,251476,JensenSchAca-CPS,3024 W Harrison,60612,EAST GARFIELD PARK,K-12 School,"64,440",1963,1,69,"1,724,431","2,648,857",,,,67.900000000000006,127.2,71.5,131.5,487,7.6,41.873767999999998,-87.701595999999995,"(41.873768, -87.701596)"
2015,244535,(IL526)-Carl Sandburg Village,1355 N. Sandburg Terrace,60610,NEAR NORTH SIDE,Multifamily Housing,"597,193",1963,1,68,"8,953,119","44,941,571",,,,90.2,126.1,95.1,131.19999999999999,"4,186",7,41.907064089999999,-87.631903190000003,"(41.90706409, -87.63190319)"
2015,124019,Jewel Food Store,4734 N. Cumberland Ave.,60656-4239,OHARE,Supermarket/Grocery Store,"51,447",1997,1,80,"7,850,684","3,022,300",,,,211.3,540.79999999999995,212,540.70000000000005,"1,738",33.799999999999997,41.965650140000001,-87.836819329999997,"(41.96565014, -87.83681933)"
2015,238355,Museum Park Tower 1 Condominium Association,1322 S. Prairie Ave,60605,NEAR SOUTH SIDE,Multifamily Housing,"279,381",2001,1,23,"9,336,815","19,858,459",,,,104.5,179.6,108.7,182.7,"2,931",10.5,41.865232980000002,-87.621674990000002,"(41.86523298, -87.62167499)"
2015,173495,Saint Juliana School,7400 West Touhy,60631,EDISON PARK,K-12 School,"57,011",1928,1,52,"823,015","5,351,810",,,,108.3,143.9,111.5,147.4,450,7.9,42.011611000000002,-87.811524000000006,"(42.011611, -87.811524)"
2015,251597,Okeeffe Elem-CPS,6940 S Merrill Ave,60649,SOUTH SHORE,K-12 School,"95,310",1925,1,94,"1,145,199","4,125,754",,,,55.3,83.2,59.6,89,449,4.7,41.768699560000002,-87.57309463,"(41.76869956, -87.57309463)"
2015,125013,West Chatham Plaza,122 - 160 W. 79th,60620,GREATER GRAND CROSSING,Strip Mall,"68,200",1986,1,,"3,031,641","4,198,392",,,,106,204.2,106,204.2,832,12.2,41.751956130000003,-87.628563299999996,"(41.75195613, -87.6285633)"
2015,121102,Lakeview Medical Campus LLC,1333 West Belmont,60657,LAKE VIEW,Medical Office,"53,403",2011,1,15,"6,299,306","144,989",,,,120.7,373.2,120.9,373.5,"1,273",23.8,41.939721419999998,-87.662273220000003,"(41.93972142, -87.66227322)"
2015,238973,Winston Towers One,6933 N Kedzie Ave,60645,WEST RIDGE,Multifamily Housing,"326,000",1965,1,67,"6,578,486","19,619,206",,,,80.400000000000006,126.6,87.3,133.9,"2,364",7.3,42.00719264,-87.708479190000006,"(42.00719264, -87.70847919)"
2015,250015,Hamilton Park,513 West 72nd Street,60621,ENGLEWOOD,Other - Recreation,"54,758",1905,1,,"259,902","6,961,619",,,,131.9,148.4,142.30000000000001,159.30000000000001,422,7.7,41.763039220000003,-87.639019619999999,"(41.76303922, -87.63901962)"
2015,156782,Chicago Medical Society,515 N Dearborn,60654,NEAR NORTH SIDE,Office,"52,284",1925,1,85,"1,536,366","2,134,195",,,,70.2,135.1,73.099999999999994,136.69999999999999,422,8.1,41.891419249999998,-87.629359460000003,"(41.89141925, -87.62935946)"
2015,160130,111 W. Illinois,111 W. Illinois St.,60654,NEAR NORTH SIDE,Office,"270,016",2008,1,92,"11,571,191","1,974,818",,,,50.2,142.19999999999999,51.3,145,"2,430",9,41.89059211,-87.631700690000002,"(41.89059211, -87.63170069)"
2015,102368,Bradley Business Center,2500 W Bradley Place,60618,NORTH CENTER,Mixed Use Property,"350,000",1956,1,91,"2,508,762","13,630,348",,,,46.1,63.4,46.1,63.4,"1,228",3.5,41.950305190000002,-87.692525459999999,"(41.95030519, -87.69252546)"
2015,120624,2641 West Harrison,2641 W. Harrison Street,60612,EAST GARFIELD PARK,Other,"55,754",2007,1,,"4,396,284","1,968,885",,,,114.2,284.7,116.8,287.39999999999998,988,17.7,41.873407139999998,-87.692356720000006,"(41.87340714, -87.69235672)"
2015,251431,Kanoon Magne-CPS,2233 S Kedzie Ave,60623,SOUTH LAWNDALE,K-12 School,"67,900",1980,1,15,"4,558,500",,,,,67.099999999999994,210.8,69.900000000000006,219.6,916,13.5,41.85046517,-87.704608890000003,"(41.85046517, -87.70460889)"
2015,251329,McCabe Hall,900 W. Belden,60614,LINCOLN PARK,College/University,"58,406",1977,1,,"1,993,119","7,750,568",,,,166.8,246.5,177.7,257.89999999999998,812,13.9,41.923971899999998,-87.651547820000005,"(41.9239719, -87.65154782)"
2015,160436,The Bernardin,747 Wabash Ave,60611,NEAR NORTH SIDE,Multifamily Housing,"290,070",2005,1,28,"9,589,303","10,778,394",,,,70.2,142.80000000000001,72.3,145.1,"2,499",8.6,41.896388889999997,-87.626464979999994,"(41.89638889, -87.62646498)"
2015,244747,Lancaster Condo Association,201 N. Westshore Drive,60601,LOOP,Multifamily Housing,"323,000",2004,1,37,"9,409,522","18,734,855",,,,87.1,152.4,90.2,154.69999999999999,"2,886",8.9,41.886266929999998,-87.616000900000003,"(41.88626693, -87.6160009)"
2015,103630,Stroger Hospital Campus,1901 W. Harrison St.,60612,NEAR WEST SIDE,Hospital (General Medical & Surgical),"1,802,093",2002,4,20,"175,877,067","332,917,363",,,,282.3,500.4,285.7,501.8,"53,019",29.4,41.874071000000001,-87.674135000000007,"(41.874071, -87.674135)"
2015,160099,The Peninsula Chicago,108 East Superior St.,60611,NEAR NORTH SIDE,Hotel,"403,219",2000,1,7,"39,006,939","20,318,440",,,,147.1,356.7,148.9,360.3,"8,916",22.1,41.895752999999999,-87.625058999999993,"(41.895753, -87.625059)"
2015,138605,"Kennedy Plaza BK, L.L.C.",3300 W. Belmont Avenue,60618,AVONDALE,Strip Mall,"77,385",1977,1,,"4,925,454","3,810,800",,,,112.9,251.6,112.9,251.6,"1,192",15.4,41.939346999999998,-87.710159000000004,"(41.939347, -87.710159)"
2015,160070,777 North Michigan Condo Association,777 N Michigan,60611,NEAR NORTH SIDE,Multifamily Housing,"400,000",1964,1,71,"9,427,888","18,994,682",,,,71.099999999999994,123.9,73.8,126.3,"2,903",7.3,41.89640687,-87.62384668,"(41.89640687, -87.62384668)"
2015,164965,SCI,2653 West Ogden Avenue,60608,NORTH LAWNDALE,Medical Office,"108,060",2013,1,83,"4,995,165","4,159,090",,,,84.7,185.6,86.6,186.6,"1,225",11.3,41.861740019999999,-87.69294361,"(41.86174002, -87.69294361)"
2015,127031,016910 - Old Town Square,424 West Division Street,60610,NEAR NORTH SIDE,Strip Mall,"95,835",1998,2,,"3,810,911",,,,,39.799999999999997,124.9,39.799999999999997,124.9,766,8,41.905150140000003,-87.639368689999998,"(41.90515014, -87.63936869)"
2015,164537,Evangeline Booth Lodge / Family and Community Services,800 W. Lawrence,60640,UPTOWN,Residence Hall/Dormitory,"71,038",2000,1,57,"2,488,873","5,550,674",,,,113.2,192.1,116.1,194,795,11.2,41.96940223,-87.650965049999996,"(41.96940223, -87.65096505)"
2015,252034,Center Home For Hispanic Elderly,1401 N. California Ave,60622,WEST TOWN,Senior Care Community,"75,000",1925,1,,"2,055,678","9,818,951",,,,158.30000000000001,223.5,164.1,228.8,935,12.5,41.906760460000001,-87.69632541,"(41.90676046, -87.69632541)"
2015,119450,CHICAGO NEAR NORTH (0942),2656 N ELSTON AVE,60647,LOGAN SQUARE,Retail Store,"184,994",1994,1,78,"12,149,146","7,349,700",,,,105.4,247.9,108,249.4,"2,831",15.3,41.928594680000003,-87.684989189999996,"(41.92859468, -87.68498919)"
2015,242586,250 270 Pearson,250-270 E. Pearson St.,60611,NEAR NORTH SIDE,Multifamily Housing,"611,963",2003,2,76,"12,519,648","24,699,017",,,,60.8,106.6,62.4,107.9,"3,827",6.3,41.89789468,-87.618805769999994,"(41.89789468, -87.61880577)"
2015,242638,Ontario Street Lofts CA,411 W. Ontario Street,60654,NEAR NORTH SIDE,Multifamily Housing,"261,854",1994,1,100,"1,105,512","8,242,986",,,,35.700000000000003,46.3,37.6,48.4,660,2.5,41.893083269999998,-87.639690270000003,"(41.89308327, -87.63969027)"
2015,162224,Catholic Theological Union - Academic and Conference Center,5416 S. Cornell Ave.,60615,HYDE PARK,College/University,"101,302",2006,1,,"7,836,596",,,,,77.400000000000006,242.9,79.400000000000006,249.2,"1,575",15.5,41.797762370000001,-87.586021500000001,"(41.79776237, -87.5860215)"
2015,251593,Clay Element-CPS,13221 S Burley,60633,HEGEWISCH,K-12 School,"81,950",1917,1,59,"1,373,141","6,721,988",,,,98.8,138.69999999999999,107.5,148.5,633,7.7,41.655085999999997,-87.544685999999999,"(41.655086, -87.544686)"
2015,158303,W Chicago Lakeshore,644 North Lake Shore Drive,60611,NEAR NORTH SIDE,Hotel,"381,382",1965,1,21,"26,175,496","12,197,087",,,,100.6,249.1,102.5,252.4,"5,907",15.5,41.893905140000001,-87.615650909999999,"(41.89390514, -87.61565091)"
2015,251666,Sutherland E-CPS,10015 S LEAVITT ST,60643,BEVERLY,K-12 School,"80,219",2002,1,91,"685,723","3,280,917",,,,49.4,69.8,52.2,72.7,312,3.9,41.711288430000003,-87.676548109999999,"(41.71128843, -87.67654811)"
2015,242238,535 North Michigan,535 North Michigan Avenue,60611,NEAR NORTH SIDE,Multifamily Housing,"448,591",1962,1,30,"16,125,767","22,610,859",,,,86.4,165.8,89.1,168.7,"4,441",9.9,41.891971359999999,-87.624123580000003,"(41.89197136, -87.62412358)"
2015,251512,Christopher-CPS,5042 S Artesian Ave,60632,GAGE PARK,K-12 School,"76,800",1929,1,55,"2,408,982","5,298,999",,,,100.4,170.9,105.1,176.8,766,10,41.80176591,-87.686070209999997,"(41.80176591, -87.68607021)"
2015,101776,Hyatt Regency Chicago,151 East Wacker Drive,60601,LOOP,Hotel,"1,885,658",1974,1,57,"85,276,867","115,757,710",,,,106.6,206.5,109.1,208.3,"23,282",12.3,41.887702969999999,-87.622674040000007,"(41.88770297, -87.62267404)"
2015,251222,2229 South Halsted,2229 South Halsted Street,60608,LOWER WEST SIDE,Office,"69,803",1908,1,54,"4,762,596","15,503",,,,68.5,214.5,69.8,218.7,958,13.7,41.851759850000001,-87.646263430000005,"(41.85175985, -87.64626343)"
2015,159571,2144 N. Lincoln Park Condominium Association,2144 N. Lincoln Park West,60614,LINCOLN PARK,Multifamily Housing,"287,000",1975,1,100,"1,844,050","6,588,664",,,,29.4,44.3,30.8,45.7,720,2.5,41.921303960000003,-87.636450600000003,"(41.92130396, -87.6364506)"
2015,125235,8527-Ukrainian Village,2021 W Chicago Ave,60622,WEST TOWN,Supermarket/Grocery Store,"54,963",2013,1,61,"8,444,649","8,978,100",,,,317,654,323.89999999999998,661.2,"2,174",39.5,41.895525890000002,-87.678377949999998,"(41.89552589, -87.67837795)"
2015,251459,Casals Eleme-CPS,3501 W Potomac Ave,60651,HUMBOLDT PARK,K-12 School,"66,550",1988,1,22,"3,194,659","3,084,113",,,,94.3,199.4,97.3,200.9,806,12.1,41.904190079999999,-87.714125449999997,"(41.90419008, -87.71412545)"
2015,251641,Depriest Ele-CPS,139 S Parkside Ave,60644,AUSTIN,K-12 School,"106,650",2003,1,19,"5,653,135",,,,,53,166.4,53,166.4,"1,136",10.6,41.878147630000001,-87.765994259999999,"(41.87814763, -87.76599426)"
2015,159560,Eugenie Terrace,1730 N Clark Street,60614,LINCOLN PARK,Multifamily Housing,"621,923",1987,1,26,"18,097,224","39,630,998",,,,92.8,158.30000000000001,96,160.69999999999999,"5,741",9.1999999999999993,41.91378263,-87.633840390000003,"(41.91378263, -87.63384039)"
2015,251566,Beidler Elem-CPS,3151 W Walnut St,60612,EAST GARFIELD PARK,K-12 School,"86,770",1959,1,64,"2,126,068","4,120,356",,,,72,126.8,75.900000000000006,130.9,646,7.4,41.885131029999997,-87.705316850000003,"(41.88513103, -87.70531685)"
2015,242655,10 E. Delaware Condominium Association,10 E. Delaware Place,60611,NEAR NORTH SIDE,Multifamily Housing,"424,837",2009,1,58,"12,332,510","13,110,973",,,,59.9,123.6,61.6,126.1,"3,174",7.5,41.899392519999999,-87.627902579999997,"(41.89939252, -87.62790258)"
2015,101891,224 South Michigan Avenue,224 South Michigan Avenue,60604,LOOP,Office,"412,504",1904,1,90,"20,375,792","8,607,624",,,,70.3,177,71.900000000000006,177.8,"4,551",11,41.878624049999999,-87.624890660000005,"(41.87862405, -87.62489066)"
2015,174182,Lewis Towers,820 N Michigan Ave,60611,NEAR NORTH SIDE,College/University,"216,081",1980,1,,"8,815,673","9,754,800",,,,85.9,175.5,89.2,178.1,"2,289",10.6,41.897461999999997,-87.624885000000006,"(41.897462, -87.624885)"
2015,251553,Sawyer Eleme-CPS,5248 S SAWYER AVE,60632,GAGE PARK,K-12 School,"163,308",1901,1,46,"5,814,884","6,376,329",,,,74.7,152.80000000000001,77.7,156.1,"1,507",9.1999999999999993,41.797580189999998,-87.705261370000002,"(41.79758019, -87.70526137)"
2015,251873,BackOfTheYrd-CPS,2111 W 47th St,60609,NEW CITY,K-12 School,"212,285",2012,1,82,"8,534,654",,,,,40.200000000000003,126.2,40.200000000000003,126.2,"1,715",8.1,41.808463000000003,-87.677640999999994,"(41.808463, -87.677641)"
2015,222943,University Park CA,1451 E. 55th Street,60615,HYDE PARK,Multifamily Housing,"538,980",1963,1,58,"4,809,224","54,010,630",,,,109.1,133.19999999999999,115.2,139.6,"3,835",7.1,41.795351439999997,-87.590765090000005,"(41.79535144, -87.59076509)"
2015,252023,CICS Longwood,1309 W. 95th St.,60643,WASHINGTON HEIGHTS,K-12 School,"165,520",1952,5,55,"2,001,974","18,099,737",,,,121.4,152.80000000000001,130.19999999999999,162,"1,364",8.1999999999999993,41.721234000000003,-87.655051999999998,"(41.721234, -87.655052)"
2015,128798,MacLean Center,112 S. Michigan Ave.,60603,LOOP,College/University,"237,256",1908,1,,"10,574,129","10,884,281",,,,90.4,188.1,90.3,186.4,"2,703",11.4,41.880401159999998,-87.62480927,"(41.88040116, -87.62480927)"
2015,162083,Rowe Clark Math and Science Academy,3645 W. Chicago,60651,HUMBOLDT PARK,K-12 School,"51,729",2007,1,23,"2,426,408","436,982",,,,55.4,156,56.6,158.30000000000001,510,9.9,41.89522444,-87.718157180000006,"(41.89522444, -87.71815718)"
2015,160373,Hubbard Place,360 W Hubbard Street,60654,NEAR NORTH SIDE,Multifamily Housing,"378,855",2013,1,32,"13,979,445","19,200,013",,,,87.6,169.1,90.2,171.4,"3,829",10.1,41.890425929999999,-87.638642169999997,"(41.89042593, -87.63864217)"
2015,251346,650 West Lake Street,650 West Lake Street,60661,NEAR WEST SIDE,Office,"53,419",1909,1,71,"2,219,564","2,336,408",,,,85.3,176.4,88.9,179.2,570,10.7,41.886008189999998,-87.644743570000003,"(41.88600819, -87.64474357)"
2015,251316,02508-Howard & Clark,1763 W Howard St,60626,ROGERS PARK,Supermarket/Grocery Store,"70,262",2013,1,19,"12,200,490","6,542,600",,,,266.8,643,266.8,643,"2,799",39.799999999999997,42.019366580000003,-87.675282139999993,"(42.01936658, -87.67528214)"
2015,100393,Ford City Mall,7601 S Cicero Ave,60652,WEST LAWN,Enclosed Mall,"864,923",1950,1,,"154,672,545","53,147,523",,,,240.3,626,240.3,626,"33,899",39.200000000000003,41.75582921,-87.73699268,"(41.75582921, -87.73699268)"
2015,251446,Randolph Ele-CPS,7316 S HOYNE AVE,60636,WEST ENGLEWOOD,K-12 School,"78,450",1980,1,5,"4,721,536","1,837,011",,,,83.6,213.6,86.3,218.1,"1,046",13.3,41.760651920000001,-87.676812650000002,"(41.76065192, -87.67681265)"
2015,132278,605 North Michigan Avenue,605 N Michigan,60612,NEAR NORTH SIDE,Mixed Use Property,"82,405",1922,1,,"4,318,299","4,172,674",,,,103,217.7,105.6,220.4,"1,089",13.2,41.892772069999999,-87.62414339,"(41.89277207, -87.62414339)"
2015,251633,Prussing Ele-CPS,4650 N MENARD AVE,60630,PORTAGE PARK,K-12 School,"74,601",1927,1,72,"1,622,110","3,338,716",,,,66.5,115.3,67.7,116.8,503,6.7,41.965617719999997,-87.772671310000007,"(41.96561772, -87.77267131)"
2015,242236,University Station CA,1550 S. Blue Island Avenue,60608,NEAR WEST SIDE,Multifamily Housing,"298,652",1927,1,94,"5,328,282","11,077,099",,,,54.9,95,56.6,97.3,"1,659",5.6,41.860608290000002,-87.659699099999997,"(41.86060829, -87.6596991)"
2015,232062,Prairie District Homes Tower Residences Condominium Association,1717 S. Prairie,60616,NEAR SOUTH SIDE,Multifamily Housing,"291,068",2003,1,16,"8,537,524","14,159,087",,,,78,143.19999999999999,81.400000000000006,147.6,"2,467",8.5,41.858475149999997,-87.61984803,"(41.85847515, -87.61984803)"
2015,101987,20 S. Clark,20 S. Clark Street,60603,LOOP,Office,"464,592",1970,1,78,"28,181,046",,,,,60.7,190.5,62.1,194.9,"5,662",12.2,41.88129971,-87.631182600000002,"(41.88129971, -87.6311826)"
2015,103781,625 N Michigan Avenue,625 N Michigan Avenue,606114594,NEAR NORTH SIDE,Office,"359,409",1969,1,93,"14,021,150","11,942,084",,,,72.2,157.4,74.900000000000006,159.5,"3,451",9.6,41.893121999999998,-87.624155000000002,"(41.893122, -87.624155)"
2015,173622,444 W Jackson,444 W Jackson,60606,NEAR WEST SIDE,Fitness Center/Health Club/Gym,"71,235",1974,1,,"7,379,303","9,409,147",,,,235.7,464,239.5,466.3,"1,982",27.8,41.87808768,-87.638950159999993,"(41.87808768, -87.63895016)"
2015,234838,1400 South Michigan,1400 South Michigan Avenue,60605,NEAR SOUTH SIDE,Multifamily Housing,"344,016",2008,1,58,"9,479,259","16,037,816",,,,74.2,135.5,76.900000000000006,138.80000000000001,"2,756",8,41.863784840000001,-87.624554680000003,"(41.86378484, -87.62455468)"
2015,251482,Ruiz Element-CPS,2410 S LEAVITT ST,60608,LOWER WEST SIDE,K-12 School,"80,217",1989,1,33,"3,578,151","2,236,084",,,,72.5,169.3,75,172.4,838,10.4,41.847953570000001,-87.681240489999993,"(41.84795357, -87.68124049)"
2015,160264,K2 Apartments,365 N Halsted St,60661,WEST TOWN,Multifamily Housing,"386,194",2013,1,38,"12,528,079","23,882,561",,,,94.3,166.7,97.6,169.7,"3,783",9.8000000000000007,41.888302000000003,-87.647493999999995,"(41.888302, -87.647494)"
2015,251287,SpringHill Suites O'Hare,8101 W. Higgins,60631,NORWOOD PARK,Hotel,"160,000",2000,1,8,"13,819,549","10,795,725",,,,153.80000000000001,342.1,154.5,342.8,"3,350",20.9,41.985151270000003,-87.830153969999998,"(41.98515127, -87.83015397)"
2015,236480,Thorndale Beach South Condominium Association,5855 N. Sheridan,60660,EDGEWATER,Multifamily Housing,"287,849",1967,1,9,"18,036,214",,,,,62.7,196.7,63.4,199.2,"3,624",12.6,41.988847,-87.654696529999995,"(41.988847, -87.65469653)"
2015,160319,500 Lake Shore Drive,500 Lake Shore Drive,60611,NEAR NORTH SIDE,Multifamily Housing,"716,899",2013,1,25,"27,468,412","16,906,966",,,,61.9,145.1,62.8,146,"6,417",9,41.892001,-87.614665000000002,"(41.892001, -87.614665)"
2015,239994,Park 1500 Lofts,1500 W. Monroe Street,60607,NEAR WEST SIDE,Multifamily Housing,"457,995",2002,1,77,"9,934,468","13,282,083",,,,50.7,98.6,51.8,99.7,"2,701",5.9,41.88047306,-87.664949460000003,"(41.88047306, -87.66494946)"
2015,251473,Onahan Eleme-CPS,6634 W Raven St,60631,NORWOOD PARK,K-12 School,"90,969",1928,1,37,"1,554,451","7,225,103",,,,96.5,137.1,98.6,139.30000000000001,696,7.7,41.994148510000002,-87.792509370000005,"(41.99414851, -87.79250937)"
2015,102544,Olive-Harvey College,10001 South Woodlawn Ave,60628,PULLMAN,College/University,"397,700",1981,1,,"14,707,948","12,206,285",,,,67.7,148.4,70.099999999999994,150.9,"3,603",9.1,41.71336917,-87.592259110000001,"(41.71336917, -87.59225911)"
2015,251608,Gunsaulus Sc-CPS,4418 S Sacramento,60632,BRIGHTON PARK,K-12 School,"106,519",1924,1,84,"1,661,780","5,690,262",,,,69,105.1,74.099999999999994,110.7,636,6,41.813268000000001,-87.699298999999996,"(41.813268, -87.699299)"
2015,119757,CHICAGO SOUTH PULASKI (1879),4433 S PULASKI RD,60632,ARCHER HEIGHTS,Retail Store,"120,964",2004,1,77,"7,229,694","2,177,500",,,,77.8,206.6,79.099999999999994,207,"1,568",13,41.812511200000003,-87.721978449999995,"(41.8125112, -87.72197845)"
2015,160157,GX Master Tenant,2545 W Diversey,60647,LOGAN SQUARE,Office,"226,736",1914,1,81,"14,142,276","5,531,400",,,,86.8,221.5,88.2,222.2,"3,135",13.8,41.931625609999998,-87.6918905,"(41.93162561, -87.6918905)"
2015,251571,Howe Element-CPS,720 N Lorel Ave,60621,AUSTIN,K-12 School,"69,535",1889,1,90,"1,466,222","2,505,614",,,,57.1,104,60.4,107.9,428,6.2,41.893673280000002,-87.759307930000006,"(41.89367328, -87.75930793)"
2015,251790,Saint Monica School,5115 North Mont Clare Avenue,60656,NORWOOD PARK,K-12 School,"54,061",1958,1,52,"1,323,409","3,485,470",,,,89,144.6,90.4,146,451,8.3000000000000007,41.973931409999999,-87.804303140000002,"(41.97393141, -87.80430314)"
2015,119552,03344-Roosevelt & Ashland,1220 S Ashland Ave,60608,NEAR WEST SIDE,Supermarket/Grocery Store,"63,407",2002,1,67,"9,364,954","3,474,800",,,,202.5,521.29999999999995,204.2,520.1,"2,066",32.6,41.865903250000002,-87.668599610000001,"(41.86590325, -87.66859961)"
2015,102455,Harper Center (Booth School),5807 South Woodlawn Ave.,60637,HYDE PARK,College/University,"419,312",2004,1,,"20,304,754","721,900","20,739,505",,,99.6,213.4,100.3,213.2,"5,495",13.1,41.789140400000001,-87.595552490000003,"(41.7891404, -87.59555249)"
2015,251858,Schneider-CPS,2957 N HOYNE AVE,60618,NORTH CENTER,K-12 School,"51,852",1889,1,53,"1,125,924","3,301,325",,,,85.4,135,90.9,141.19999999999999,402,7.7,41.935549000000002,-87.680321070000005,"(41.935549, -87.68032107)"
2015,173625,Burnham 600,600 W. Jackson Blvd.,60661,NEAR WEST SIDE,Office,"125,516",1912,1,83,"5,212,164","6,687,797",,,,94.8,186.3,98.8,190.5,"1,402",11.2,41.878017749999998,-87.643191490000007,"(41.87801775, -87.64319149)"
2015,131291,29 N. Wacker,29 N. Wacker,60606,LOOP,Office,"139,171",1951,1,85,"5,807,425","6,854,148",,,,91,182.7,94.9,186.9,"1,531",11,41.882686810000003,-87.636741189999995,"(41.88268681, -87.63674119)"
2015,101681,Presence Resurrection Medical Center,7435 West Talcott Avenue,60631,NORWOOD PARK,Hospital (General Medical & Surgical),"1,096,075",1953,2,36,"94,580,845","164,926,398",,,,236.8,428.9,237.4,428.6,"27,763",25.3,41.986324170000003,-87.814565709999997,"(41.98632417, -87.81456571)"
2015,250069,Altgeld Gardens,925 E. 130th Street,60627,RIVERDALE,Multifamily Housing,"1,182,400",1945,236,40,"39,437,977","97,923,199",,,,116.2,191.7,116.2,191.7,"11,694",9.9,41.659118980000002,-87.603158750000006,"(41.65911898, -87.60315875)"
2015,242172,Two East Oak Condominium Association,Two East Oak Street,60611,NEAR NORTH SIDE,Multifamily Housing,"253,772",1971,1,24,"8,459,614","17,173,129",,,,101,175.7,105.2,179.2,"2,612",10.3,41.900744000000003,-87.628200000000007,"(41.900744, -87.6282)"
2015,103645,203 North LaSalle,203 N LaSalle Street,60601,LOOP,Office,"760,086",1985,1,83,"47,422,296",,,,,62.4,195.9,63.2,198.5,"9,528",12.5,41.886062209999999,-87.631690410000004,"(41.88606221, -87.63169041)"
2015,101980,Harold Washington College,30 East Lake Street,60601,LOOP,College/University,"345,300",1983,1,,"17,926,082","1,936,775",,,,57.5,168.9,57.9,170.1,"3,704",10.7,41.886065649999999,-87.626857639999997,"(41.88606565, -87.62685764)"
2015,159419,"Fifth Praire Shores, LLC",2801 S King Drive,60616,DOUGLAS,Multifamily Housing,"289,267",1960,1,36,"4,345,332","29,724,334",,,,117.8,155.1,123.6,161.1,"2,452",8.5,41.843642819999999,-87.616733359999998,"(41.84364282, -87.61673336)"
2015,250118,Norwegian American Hospital,1044 N. Francisco Ave,60622,WEST TOWN,Hospital (General Medical & Surgical),"312,898",1917,2,40,"35,314,234","34,905,999",,,,224.4,471.5,225.3,469.7,"8,949",28.6,41.899824000000002,-87.699298999999996,"(41.899824, -87.699299)"
2015,251521,Mccormick-CPS,2712 S Sawyer Ave,60623,SOUTH LAWNDALE,K-12 School,"100,260",1905,1,53,"2,452,213","5,424,585",,,,78.599999999999994,133.6,84.6,140.9,781,7.8,41.842042859999999,-87.706541610000002,"(41.84204286, -87.70654161)"
2015,101738,300 E Randolph,300 East Randolph,60601,LOOP,Office,"2,218,838",2010,1,78,"117,146,687","2,471,188",,"65,819,386","33,258",83.6,196.6,83.2,197.8,"27,139",12.2,41.88484639,-87.619898930000005,"(41.88484639, -87.61989893)"
2015,252043,Renee Granville-Grossman Residential Commons,6031 South Ellis Avenue,60637,WOODLAWN,Residence Hall/Dormitory,"338,679",2009,1,38,"11,295,655","459,500","20,776,211","4,382,880",,109,192.9,111.6,196.1,"3,904",11.5,41.785279000000003,-87.601123999999999,"(41.785279, -87.601124)"
2015,125148,Shop & Save Market - Archer,5829 S. ARCHER AVE.,60638,GARFIELD RIDGE,Supermarket/Grocery Store,"67,169",1985,1,56,"9,091,168","7,179,962",,,,242.2,537.20000000000005,246,539.20000000000005,"2,208",32.9,41.795658459999999,-87.759232530000006,"(41.79565846, -87.75923253)"
2015,252057,"Beecher, Kelley, Green, Foster, Social Science Research Building",1126 East 59th Street,60637,HYDE PARK,Office,"181,231",1929,3,,"4,442,615",,"11,397,650",,,87.4,152.6,90.8,156.69999999999999,"1,649",9.1,41.787813470000003,-87.598276920000004,"(41.78781347, -87.59827692)"
2015,251321,1150 West Fullerton Building,1150 W. Fullerton,60614,LINCOLN PARK,College/University,"52,043",1994,1,,"1,735,449","1,474,039",,,,61.7,134.4,64.7,138.69999999999999,427,8.1999999999999993,41.925596179999999,-87.658147810000003,"(41.92559618, -87.65814781)"
2015,244791,The Chandler,450 East Waterside Drive,60601,LOOP,Multifamily Housing,"444,000",2005,1,31,"12,324,482","24,539,022",,,,83,145.19999999999999,85.7,147.6,"3,780",8.5,41.887162770000003,-87.615366820000006,"(41.88716277, -87.61536682)"
2015,251272,Walmart Supercenter #5781,8331 S Stewart Ave,60620,CHATHAM,Wholesale Club/Supercenter,"148,364",2012,1,53,"13,867,262","6,668,958",,,,138.4,340.7,141.1,342.5,"3,140",21.2,41.742502000000002,-87.634048000000007,"(41.742502, -87.634048)"
2015,101797,303 E. Wacker,303 E. Wacker,60601,LOOP,Office,"1,015,129",1979,1,94,"61,162,215","148,653",,,,60.4,189.3,61.3,192.2,"12,296",12.1,41.887294740000002,-87.620261420000006,"(41.88729474, -87.62026142)"
2015,175475,333 South Ashland,333 S. Ashland Avenue,60607,NEAR WEST SIDE,Office,"68,150",1927,1,76,"1,679,731","3,842,743",,,,81,136.6,85.6,140.80000000000001,542,7.9,41.877184999999997,-87.666646999999998,"(41.877185, -87.666647)"
2015,171995,7000-7010 S. Pulaski Road,7000-7010 S. Pulaski Road,60629,WEST LAWN,Retail Store,"64,215",1985,1,,"8,801,377","4,523,207",,,,207.5,504.3,209.8,506.7,"2,009",31.3,41.76545745,-87.723527770000004,"(41.76545745, -87.72352777)"
2015,101720,131 S. Dearborn 3,131 S. Dearborn,60603,LOOP,Office,"1,652,550",2002,1,80,"158,249,822","89,232",,,,95.8,300.7,97.6,306.2,"31,799",19.2,41.879808689999997,-87.628549109999994,"(41.87980869, -87.62854911)"
2015,159415,Astoria Tower,8 East 9th Street,60605,LOOP,Multifamily Housing,"304,406",2008,1,41,"10,424,680","13,429,800",,,,78.400000000000006,153.9,81.2,157.1,"2,808",9.1999999999999993,41.870826110000003,-87.627082049999999,"(41.87082611, -87.62708205)"
2015,101709,20 North Wacker Drive,20 North Wacker Drive,60606,LOOP,Office,"1,742,899",1929,1,,"63,398,509","62,934,111",,,,72.5,152.1,75.3,155.1,"16,080",9.1999999999999993,41.882526329999997,-87.637470120000003,"(41.88252633, -87.63747012)"
2015,229826,Waldorf Astoria,11 E Walton,60611,NEAR NORTH SIDE,Hotel,"668,071",2006,1,1,"62,377,024","38,258,850",,,,150.6,353.3,151.80000000000001,353.5,"14,564",21.8,41.899773860000003,-87.627643149999997,"(41.89977386, -87.62764315)"
2015,251499,Jahn World L-CPS,3149 N Wolcott Ave,60657,NORTH CENTER,K-12 School,"83,029",1908,1,80,"1,407,740","4,182,962",,,,67.3,106.1,71.8,110.9,505,6.1,41.939181650000002,-87.675220670000002,"(41.93918165, -87.67522067)"
2015,243057,El Lago Condominium Association,6157 N. Sheridan Rd,60660,EDGEWATER,Multifamily Housing,"295,050",1959,1,34,"5,837,935","23,796,889",,,,100.4,146.80000000000001,101.8,148,"2,437",8.3000000000000007,41.994077840000003,-87.654858570000002,"(41.99407784, -87.65485857)"
2015,101834,One North Franklin,1 N. Franklin,60606,LOOP,Office,"716,245",1991,1,75,"45,753,146",,,,"16,560",63.9,200.6,65.2,204.8,"9,194",12.8,41.882308279999997,-87.634962299999998,"(41.88230828, -87.6349623)"
2015,101851,150-160 E. Huron,150-160 E. Huron,60611,NEAR NORTH SIDE,Hotel,"359,801",1972,1,21,"22,436,087","28,762,217",,,,142.30000000000001,279.7,145.30000000000001,282.89999999999998,"6,035",16.8,41.895216570000002,-87.623174039999995,"(41.89521657, -87.62317404)"
2015,244758,Americana Towers Condominium,1636 N. Wells,60614,LINCOLN PARK,Multifamily Housing,"355,628",1972,1,35,"9,943,206","24,803,303",,,,97.7,161,101.7,164.8,"3,315",9.3000000000000007,41.912273640000002,-87.635492110000001,"(41.91227364, -87.63549211)"
2015,251399,Park Manor E-CPS,7037 S Rhodes Ave,60637,GREATER GRAND CROSSING,K-12 School,"62,706",1913,1,13,"1,851,835","7,097,314",,,,142.69999999999999,211.6,151.9,221.8,749,11.9,41.766785030000001,-87.611313129999999,"(41.76678503, -87.61131313)"
2015,252071,Library Towers Condo Association,520 S State Street,60605,LOOP,Multifamily Housing,"363,761",2008,1,62,"8,766,830","14,442,648",,,,63.8,117.4,65.7,119.4,"2,529",7,41.875107190000001,-87.627974600000002,"(41.87510719, -87.6279746)"
2015,175905,"HI Chicago, The J. Ira and Nicki Harris Family Hostel",24 East Congress Parkway,60605,LOOP,Other - Lodging/Residential,"110,000",1880,1,,"9,046,014","3,740,054",,,,116.2,293.89999999999998,117.3,295.10000000000002,"2,016",18.3,41.875889989999997,-87.626530459999998,"(41.87588999, -87.62653046)"
2015,242537,James Kilmer Condo Association,1560 North Sandburg Terrace,60610,NEAR NORTH SIDE,Multifamily Housing,"797,058",1971,2,68,"16,776,538","42,283,410",,,,74.099999999999994,121.8,76.8,124.2,"5,617",7,41.910415399999998,-87.63270387,"(41.9104154, -87.63270387)"
2015,156942,Burton-Judson Courts,1005 East 60TH Street,60637,WOODLAWN,Residence Hall/Dormitory,"201,402",1931,1,71,"4,073,450",,"10,767,217",,,73.7,127.8,77,131.80000000000001,"1,533",7.6,41.785289480000003,-87.600162560000001,"(41.78528948, -87.60016256)"
2015,251792,Saint Sabina Parish,77th Place and Throop Street,60620,AUBURN GRESHAM,Mixed Use Property,"157,844",1946,5,,"1,991,823","14,108,606",,,,102,133.5,108.9,140.69999999999999,"1,150",7.3,41.752000719999998,-87.654946159999994,"(41.75200072, -87.65494616)"
2015,161053,Santa Clara Hall,1000-08 W Loyola Ave,60626,ROGERS PARK,College/University,"61,053",1970,1,,"1,678,439","2,473,400",,,,68,128.9,68.900000000000006,129.80000000000001,469,7.7,42.001883939999999,-87.656589679999996,"(42.00188394, -87.65658968)"
2015,101868,300 South Wacker Property LLC,300 South Wacker Drive,60606,LOOP,Office,"600,713",1971,1,85,"27,407,815","19,103,752",,,,77.400000000000006,176.7,80.099999999999994,179.1,"6,521",10.9,41.87767066,-87.637132300000005,"(41.87767066, -87.6371323)"
2015,251328,John T. Richardson Library,2350 N. Kenmore,60614,LINCOLN PARK,College/University,"187,000",1990,1,,"7,179,247","6,156,729",,,,71.3,155.1,74.099999999999994,158,"1,769",9.5,41.925005280000001,-87.655434159999999,"(41.92500528, -87.65543416)"
2015,103685,One North State,1 North State,60602,LOOP,Office,"829,072",1910,1,77,"43,263,614","20,201,639",,,,76.5,189.4,78.099999999999994,191.1,"9,765",11.8,41.88238964,-87.627284090000003,"(41.88238964, -87.62728409)"
2015,165224,Irish American Heritage Center,4626 North Knox,60630,IRVING PARK,K-12 School,"80,000",1926,1,97,"971,036","2,874,721",,,,48.1,75.8,48.9,76.7,348,4.3,41.965333080000001,-87.744544809999994,"(41.96533308, -87.74454481)"
2015,156557,542 S Dearborn,542 S Dearborn,60605,LOOP,Office,"85,227",1890,1,74,"3,080,346","5,050,294",,,,95.4,175.7,99.4,179,887,10.4,41.874760109999997,-87.629484610000006,"(41.87476011, -87.62948461)"
2015,162321,Latin School of Chicago Lower School,1529 N. Dearborn Pkwy,60610,NEAR NORTH SIDE,K-12 School,"70,559",1925,1,76,"1,421,656","3,410,000",,,,68.5,114,72.5,118.2,467,6.6,41.910193,-87.630118999999993,"(41.910193, -87.630119)"
2015,251739,North Grand-CPS,4330 W Wabansia Ave,60639,HUMBOLDT PARK,K-12 School,"205,094",2000,1,2,"12,975,928","10,031,192",,,,112.2,250,114.8,250.8,"3,140",15.3,41.911616000000002,-87.735050999999999,"(41.911616, -87.735051)"
2015,101731,175 W. Jackson,175 W. Jackson,60604,LOOP,Office,"1,809,140",1928,1,91,"76,198,729","27,175,054",,"47,630,945",,83.5,174.4,84,175.2,"19,263",10.6,41.877493520000002,-87.633198039999996,"(41.87749352, -87.63319804)"
2015,101871,123 N Wacker,123 N Wacker,60606,LOOP,Office,"587,815",1986,1,84,"32,039,369",,,,,54.5,171.1,55.4,174,"6,437",11,41.884119839999997,-87.636497250000005,"(41.88411984, -87.63649725)"
2015,137812,Integrys Group Division Street Facility,1241 West Division Street,60622,WEST TOWN,"Repair Services (Vehicle, Shoe, Locksmith, etc.)","145,000",1964,4,,"6,578,217","26,138,001",,,,225.6,331.7,228.7,335,"2,710",18.7,41.902394049999998,-87.658311159999997,"(41.90239405, -87.65831116)"
2015,100068,Joffco Square,555 West Roosevelt Road,60607,NEAR WEST SIDE,Other - Mall,"95,204",2008,1,,"7,497,986","1,366,562",,,,93.1,262.39999999999998,95.6,268.39999999999998,"1,579",16.600000000000001,41.866866999999999,-87.641449570000006,"(41.866867, -87.64144957)"
2015,239096,Marina Towers Condominium Association,300 N State Street,60654,NEAR NORTH SIDE,Multifamily Housing,"774,420",1962,2,43,"35,548,707",,,,,45.9,144.1,47.6,149.4,"7,142",9.1999999999999993,41.887960079999999,-87.629130759999995,"(41.88796008, -87.62913076)"
2015,250143,325 North Wells,325 North Wells,60654,NEAR NORTH SIDE,College/University,"154,112",1914,1,,"4,796,163","5,642,219",,"3,308,520",,89.2,157.6,91.4,160.19999999999999,"1,438",9.3000000000000007,41.888331440000002,-87.633944249999999,"(41.88833144, -87.63394425)"
2015,124911,Point at Clark,3131 N. clark Street,60657,LAKE VIEW,Strip Mall,"95,455",1995,1,,"9,606,865",,,,,100.6,316,100.6,316,"1,930",20.2,41.939166059999998,-87.649628800000002,"(41.93916606, -87.6496288)"
2015,251414,Dumas Elemen-CPS,6650 S Ellis Ave,60637,WOODLAWN,K-12 School,"64,558",1963,1,38,"1,836,925","3,776,990",,,,87,150.80000000000001,91.6,155.69999999999999,570,8.8000000000000007,41.773742169999998,-87.601228460000002,"(41.77374217, -87.60122846)"
2015,103696,111 South Wacker,111 South Wacker,60606,LOOP,Office,"1,248,730",2004,1,80,"87,014,155",,,,,69.7,218.8,70.8,222.3,"17,482",14,41.880335000000002,-87.636667000000003,"(41.880335, -87.636667)"
2015,251315,02502-Clybourn & Wrightwood,2550 N Clybourn Ave,60614,LINCOLN PARK,Supermarket/Grocery Store,"85,209",2013,1,67,"13,253,180","5,821,200",,,,223.9,560.1,226.5,560.70000000000005,"2,972",34.9,41.927777310000003,-87.672990350000006,"(41.92777731, -87.67299035)"
2015,251874,Stagg Elemen-CPS,7424 S MORGAN ST,60621,ENGLEWOOD,K-12 School,"68,227",1969,1,53,"1,387,486","3,347,923",,,,69.400000000000006,115.4,73.3,119.4,457,6.7,41.759006360000001,-87.64938411,"(41.75900636, -87.64938411)"
2015,243636,Winston Tower #3,7061 N. Kedzie,60645,WEST RIDGE,Multifamily Housing,"400,000",1968,1,68,"4,838,305","30,701,415",,,,88.8,118.6,88.3,117.8,"2,603",6.5,42.008947040000002,-87.706383110000004,"(42.00894704, -87.70638311)"
2015,173632,The Chicago Building,7 West Madison Street,60603,LOOP,Residence Hall/Dormitory,"104,965",1904,1,,"2,960,920","5,419,214",,"1,272,696",,92,154.9,95.1,158.30000000000001,977,9.3000000000000007,41.882013149999999,-87.628219220000005,"(41.88201315, -87.62821922)"
2015,101798,HEADQUARTERS Q12380,225 W. RANDOLPH,60606,LOOP,Office,"976,496",1968,1,82,"35,553,586","38,929,770",,"18,206,648",,94.9,174.8,96.9,177.6,,,41.884116390000003,-87.634784780000004,"(41.88411639, -87.63478478)"
2015,251445,Lara Academy-CPS,4619 S Wolcott Ave,60609,NEW CITY,K-12 School,"67,964",1996,1,10,"3,367,336","2,871,095",,,,91.8,199.9,94.7,203,829,12.2,41.8097353,-87.671899109999998,"(41.8097353, -87.67189911)"
2015,235970,5100 Marine Drive Condominium Association,5100 N Marine Dr,60640,UPTOWN,Multifamily Housing,"276,176",1969,1,52,"10,157,115","8,632,149",,,,68,148.30000000000001,70.5,153.69999999999999,"2,499",9,41.975654470000002,-87.652448680000006,"(41.97565447, -87.65244868)"
2015,251520,Palmer Eleme-CPS,5501 N Kenneth Ave,60630,ALBANY PARK,K-12 School,"91,342",1926,1,59,"2,123,801","4,250,579",,,,69.8,121.9,71,123.3,653,7.1,41.968167000000001,-87.739169000000004,"(41.968167, -87.739169)"
2015,243596,Imperial Towers Condominium,4250 N Marine Dr,60613,UPTOWN,Multifamily Housing,"1,126,000",1962,1,48,"19,632,989","80,026,462",,,,88.5,129.4,92.8,133.9,"8,195",7.3,41.960300969999999,-87.647524050000001,"(41.96030097, -87.64752405)"
2015,103798,Federal Railroad Retirement Board,844 W. Rush Street,60611,NEAR NORTH SIDE,Office,"383,007",1923,4,,"16,656,002","16,763,465",,,,87.3,182.5,90.2,184.7,"4,237",11.1,41.897976130000004,-87.626227150000005,"(41.89797613, -87.62622715)"
2015,243527,RiverView Condominium Association,445 East North Water,60611,NEAR NORTH SIDE,Multifamily Housing,"831,220",2000,2,35,"27,727,775","23,497,902",,,,61.6,134.4,63,137,"6,819",8.1999999999999993,41.88925047,-87.615946820000005,"(41.88925047, -87.61594682)"
2015,252041,Bookstore,970 East 58th Street,60637,HYDE PARK,Retail Store,"50,162",1902,1,34,"2,630,564",,"2,864,729",,,109.6,233.4,112.5,235.9,719,14.3,41.789588000000002,-87.602326000000005,"(41.789588, -87.602326)"
2015,251465,CoonleyJohn-CPS,4046 N Leavitt St,60618,NORTH CENTER,K-12 School,"72,304",1893,1,30,"1,666,529","5,275,863",,,,96,149,102.1,156.19999999999999,615,8.5,41.955441069999999,-87.684002710000001,"(41.95544107, -87.68400271)"
2015,101799,200 South Wacker Property LLC,200 South Wacker Drive,60606,LOOP,Office,"874,000",1981,1,70,"59,756,369",,,,,68.400000000000006,214.7,70,219.8,"12,006",13.7,41.879024739999998,-87.637344310000003,"(41.87902474, -87.63734431)"
2015,251220,The John Marshall Law School,304 South State Street,60604,LOOP,College/University,"219,500",1915,3,,"9,762,234","8,572,024",,,,83.5,180.7,86.3,182.5,"2,417",11,41.877954090000003,-87.628051929999998,"(41.87795409, -87.62805193)"
2015,136887,3594,5050 S Kedzie Ave,60632,GAGE PARK,Retail Store,"118,816",1982,1,46,"6,089,263","8,831,200",,,,125.6,239,131.4,244,"1,693",14.2,41.801883080000003,-87.704543810000004,"(41.80188308, -87.70454381)"
2015,251576,Henry Elemen-CPS,4250 N St Louis Ave,60618,IRVING PARK,K-12 School,"90,100",1904,1,59,"1,236,033","5,496,286",,,,74.7,107.1,79.900000000000006,112.8,540,6,41.958722809999998,-87.715838450000007,"(41.95872281, -87.71583845)"
2015,101789,200 West Madison,200 West Madison,60606,LOOP,Office,"1,001,834",1982,1,80,"57,525,228",,,,,57.4,180.3,59,185.2,"11,558",11.5,41.88234782,-87.634364899999994,"(41.88234782, -87.6343649)"
2015,238266,The Fordham Condominium Association,25 E Superior,60611,NEAR NORTH SIDE,Multifamily Housing,"588,926",2002,1,6,"30,619,605","9,928,746",,"8,090,796",,82.6,194.7,84.9,202.1,,,41.895304170000003,-87.627277579999998,"(41.89530417, -87.62727758)"
2015,103759,Headquarters,547 W. Jackson Blvd.,60661,NEAR WEST SIDE,Office,"347,691",1922,1,58,"23,486,069","9,864,585",,,,95.9,241.9,97.9,243,"5,243",15.1,41.878003,-87.641470999999996,"(41.878003, -87.641471)"
2015,130379,444 North Wabash,444 North Wabash,60611,NEAR NORTH SIDE,Office,"57,780",1895,1,,"3,616,433","5,175,812",,,,152.19999999999999,290.60000000000002,152.19999999999999,290.60000000000002,"1,002",17.3,41.890141249999999,-87.626685879999997,"(41.89014125, -87.62668588)"
2015,251606,Ryerson-CPS,646 N LAWNDALE AVE,60624,HUMBOLDT PARK,K-12 School,"114,019",1889,1,29,"2,408,179","10,389,066",,,,112.2,162,120.5,170.7,"1,036",9.1,41.89330854,-87.719061519999997,"(41.89330854, -87.71906152)"
2015,102532,Advocate Trinity Hospital,2320 E. 93rd. Street,60617,CALUMET HEIGHTS,Hospital (General Medical & Surgical),"367,061",1960,1,66,"29,823,862","56,572,533",,,,235.4,417,241.7,423.6,"8,997",24.5,41.726735179999999,-87.566951950000004,"(41.72673518, -87.56695195)"
2015,101940,Mallers Building LLC,5 S. Wabash Ave.,60603,LOOP,Enclosed Mall,"315,000",1912,1,,"16,262,066","17,698,382",,,,107.8,221.1,110.6,223.2,"4,207",13.4,41.88185833,-87.625669939999995,"(41.88185833, -87.62566994)"
2015,252044,Law/ Mott/ Social Service Admin/ Faculty Housing,1111 East 60th Street,60637,WOODLAWN,College/University,"370,540",1959,4,,"16,499,081","30,390","29,762,838","8,852,436",,148.80000000000001,260.39999999999998,150.9,263.3,"5,759",15.5,41.785087300000001,-87.599057689999995,"(41.7850873, -87.59905769)"
2015,251216,2440 North Lakeview Avenue,2440 North Lakeview Avenue,60614,LINCOLN PARK,Multifamily Housing,"252,000",1927,1,86,"3,764,101","14,294,500",,,,71.7,106.5,75.3,110.3,"1,516",6,41.926738829999998,-87.639197249999995,"(41.92673883, -87.63919725)"
2015,251898,Durkin Park-CPS,8445 S Kolin Ave,60625,ASHBURN,K-12 School,"79,722",1961,1,16,"2,758,418","3,868,159",,,,83.1,159.6,83.9,160.4,760,9.5,41.739371849999998,-87.730039230000003,"(41.73937185, -87.73003923)"
2015,118332,840 North Michigan Ave,840 North Michigan Ave,60611,NEAR NORTH SIDE,Retail Store,"87,135",1992,1,19,"9,723,774",,,,,111.6,350.4,113,354.9,"1,954",22.4,41.89814046,-87.624117749999996,"(41.89814046, -87.62411775)"
